[
 {
  "번호": 1,
  "Name": "동물병원",
  "address": "서울특별시 송파구 삼전동 22-2 잠실레이크타워",
  "Latitude": 37.5070755,
  "Longitude": 127.0924728,
  "BuildingName": "스무살의꿈 동물병원"
 },
 {
  "번호": 2,
  "Name": "동물병원",
  "PhoneNumber": "02-6978-9296",
  "address": "서울특별시 서초구 원지동 379",
  "Latitude": 37.4442443,
  "Longitude": 127.0564277,
  "BuildingName": "나비셀 동물의료센터"
 },
 {
  "번호": 3,
  "Name": "동물병원",
  "PhoneNumber": "02-439-8300",
  "address": "서울특별시 중랑구 면목동 497-7",
  "Latitude": 37.5823489,
  "Longitude": 127.0882923,
  "BuildingName": "혜원동물병원"
 },
 {
  "번호": 4,
  "Name": "동물병원",
  "PhoneNumber": "02-784-7588",
  "address": "서울특별시 영등포구 여의도동 41-1 대교B상가 202호",
  "Latitude": 37.5232129,
  "Longitude": 126.933086,
  "BuildingName": "헬로우동물병원 여의도점"
 },
 {
  "번호": 5,
  "Name": "동물병원",
  "PhoneNumber": "02-6479-7582",
  "address": "서울특별시 송파구 석촌동 251-4 푸른바둑교실",
  "Latitude": 37.5026828,
  "Longitude": 127.0976542,
  "BuildingName": "동물병원 유피"
 },
 {
  "번호": 6,
  "Name": "동물병원",
  "address": "서울특별시 송파구 잠실동 175-6 J타워",
  "Latitude": 37.5115663,
  "Longitude": 127.0790214,
  "BuildingName": "ONAMC"
 },
 {
  "번호": 7,
  "Name": "동물병원",
  "PhoneNumber": "02-356-7547",
  "address": "서울특별시 은평구 역촌동 22-48",
  "Latitude": 37.6055793,
  "Longitude": 126.9158431,
  "BuildingName": "진솔동물병원"
 },
 {
  "번호": 8,
  "Name": "동물병원",
  "PhoneNumber": "02-6953-0475",
  "address": "서울특별시 동작구 흑석동 332 이랜드해가든",
  "Latitude": 37.5066658,
  "Longitude": 126.9621884,
  "BuildingName": "스무해 동물병원"
 },
 {
  "번호": 9,
  "Name": "동물병원",
  "PhoneNumber": "02-358-1591",
  "address": "서울특별시 은평구 갈현동 431-5",
  "Latitude": 37.6196405,
  "Longitude": 126.9177319,
  "BuildingName": "도그원동물의료센터"
 },
 {
  "번호": 10,
  "Name": "동물병원",
  "PhoneNumber": "02-545-8875",
  "address": "서울특별시 강남구 청담동 125-14 RNF537",
  "Latitude": 37.5251955,
  "Longitude": 127.052372,
  "BuildingName": "청담 고운 피부과 동물병원"
 },
 {
  "번호": 11,
  "Name": "동물병원",
  "address": "서울특별시 강동구 상일동 226",
  "Latitude": 37.5508582,
  "Longitude": 127.1723767,
  "BuildingName": "상일 쓰담쓰담 동물병원"
 },
 {
  "번호": 12,
  "Name": "동물병원",
  "PhoneNumber": "02-921-2413",
  "address": "서울특별시 동대문구 용두동 726-1",
  "Latitude": 37.5821511,
  "Longitude": 127.0293568,
  "BuildingName": "서울동물복지지원센터 동대문 동물병원"
 },
 {
  "번호": 13,
  "Name": "동물병원",
  "PhoneNumber": "02-6956-5259",
  "address": "서울특별시 송파구 오금동 1 홍일빌딩",
  "Latitude": 37.5110443,
  "Longitude": 127.1282342,
  "BuildingName": "올림픽동물의료센터"
 },
 {
  "번호": 14,
  "Name": "동물병원",
  "address": "서울특별시 강남구 논현동 10-5 402호",
  "Latitude": 37.5176032,
  "Longitude": 127.0256481,
  "BuildingName": "The Ark(디아크)"
 },
 {
  "번호": 15,
  "Name": "동물병원",
  "PhoneNumber": "02)6953-7576",
  "address": "서울특별시 양천구 목동 807-1",
  "Latitude": 37.5307466,
  "Longitude": 126.8642653,
  "BuildingName": "24시 로운동물의료센터"
 },
 {
  "번호": 16,
  "Name": "동물병원",
  "PhoneNumber": "02-302-7502",
  "address": "서울특별시 서대문구 홍은동 400-1 1층 우측상가",
  "Latitude": 37.5825801,
  "Longitude": 126.9255531,
  "BuildingName": "장승준동물치과병원"
 },
 {
  "번호": 17,
  "Name": "동물병원",
  "PhoneNumber": "02-304-7772",
  "address": "서울특별시 은평구 수색동 341-6",
  "Latitude": 37.5857274,
  "Longitude": 126.8928973,
  "BuildingName": "수색동물병원"
 },
 {
  "번호": 18,
  "Name": "동물병원",
  "PhoneNumber": "02-423-2088",
  "address": "서울특별시 송파구 석촌동 235-2 금산빌딩",
  "Latitude": 37.5024059,
  "Longitude": 127.0993484,
  "BuildingName": "한걸음더 재활한방 동물병원"
 },
 {
  "번호": 19,
  "Name": "동물병원",
  "PhoneNumber": "02-762-7582",
  "address": "서울특별시 종로구 혜화동 53-11 2층",
  "Latitude": 37.5868304,
  "Longitude": 127.0016898,
  "BuildingName": "뉴욕동물병원"
 },
 {
  "번호": 20,
  "Name": "동물병원",
  "PhoneNumber": "02-419-5959",
  "address": "서울특별시 송파구 석촌동 24-11 석촌호수 나인파크 A",
  "Latitude": 37.5062527,
  "Longitude": 127.0990725,
  "BuildingName": "석촌호수동물병원"
 },
 {
  "번호": 21,
  "Name": "동물병원",
  "PhoneNumber": "02-3663-6575",
  "address": "서울특별시 강서구 등촌동 639-11 홈플러스강서점앤본사사옥",
  "Latitude": 37.558418,
  "Longitude": 126.854838,
  "BuildingName": "웰니스동물병원"
 },
 {
  "번호": 22,
  "Name": "동물병원",
  "PhoneNumber": "02-6207-5551",
  "address": "서울특별시 강남구 개포동 1283 개포자이르네",
  "Latitude": 37.4784719,
  "Longitude": 127.0553589,
  "BuildingName": "헤이든동물병원"
 },
 {
  "번호": 23,
  "Name": "동물병원",
  "PhoneNumber": "02-6952-3676",
  "address": "서울특별시 강서구 가양동 1458 가양골프장",
  "Latitude": 37.5705874,
  "Longitude": 126.842066,
  "BuildingName": "보타닉동물병원"
 },
 {
  "번호": 24,
  "Name": "동물병원",
  "PhoneNumber": "070-8660-0936",
  "address": "서울특별시 중랑구 면목동 146-75",
  "Latitude": 37.5875118,
  "Longitude": 127.0802442,
  "BuildingName": "로얄동물외과수술센터"
 },
 {
  "번호": 25,
  "Name": "동물병원",
  "address": "서울특별시 영등포구 신길동 362-22",
  "Latitude": 37.506696,
  "Longitude": 126.9019332,
  "BuildingName": "신길S동물의료센터"
 },
 {
  "번호": 26,
  "Name": "동물병원",
  "PhoneNumber": "02-6953-7599",
  "address": "서울특별시 송파구 방이동 180-3 올림픽타워빌",
  "Latitude": 37.5151269,
  "Longitude": 127.1155687,
  "BuildingName": "바로슬동물병원"
 },
 {
  "번호": 27,
  "Name": "동물병원",
  "PhoneNumber": "02-540-7522",
  "address": "서울특별시 강남구 신사동 627-21 3층",
  "Latitude": 37.5229931,
  "Longitude": 127.0328786,
  "BuildingName": "케어덴 동물치과&내과병원"
 },
 {
  "번호": 28,
  "Name": "동물병원",
  "PhoneNumber": "999-7582",
  "address": "서울특별시 도봉구 쌍문동 474-4",
  "Latitude": 37.6531846,
  "Longitude": 127.0171099,
  "BuildingName": "동물병원 비아츠"
 },
 {
  "번호": 29,
  "Name": "동물병원",
  "PhoneNumber": "02)2062-7982",
  "address": "서울특별시 양천구 목동 917-6 중소기업유통센터(행복한백화점)",
  "Latitude": 37.5291473,
  "Longitude": 126.8760986,
  "BuildingName": "펫사랑동물병원"
 },
 {
  "번호": 30,
  "Name": "동물병원",
  "PhoneNumber": "02-904-1004",
  "address": "서울특별시 도봉구 창동 715-1",
  "Latitude": 37.6562308,
  "Longitude": 127.0397648,
  "BuildingName": "24시 딜라이트 동물의료센터"
 },
 {
  "번호": 31,
  "Name": "동물병원",
  "PhoneNumber": "02-2135-5611",
  "address": "서울특별시 강서구 마곡동 800-5",
  "Latitude": 37.5586285,
  "Longitude": 126.8327075,
  "BuildingName": "율동물의료센터"
 },
 {
  "번호": 32,
  "Name": "동물병원",
  "address": "서울특별시 노원구 중계동 506 브라운스톤중계",
  "Latitude": 37.6399359,
  "Longitude": 127.0642574,
  "BuildingName": "베리굿동물병원"
 },
 {
  "번호": 33,
  "Name": "동물병원",
  "address": "서울특별시 영등포구 문래동3가 77-45",
  "Latitude": 37.5184831,
  "Longitude": 126.8893503,
  "BuildingName": "김앤정동물병원"
 },
 {
  "번호": 34,
  "Name": "동물병원",
  "address": "서울특별시 송파구 방이동 108-7",
  "Latitude": 37.510883,
  "Longitude": 127.1114953,
  "BuildingName": "샤인아이안과동물병원"
 },
 {
  "번호": 35,
  "Name": "동물병원",
  "PhoneNumber": "070-8660-0904",
  "address": "서울특별시 중랑구 면목동 146-75",
  "Latitude": 37.5875118,
  "Longitude": 127.0802442,
  "BuildingName": "로얄동물메디컬센터 본원"
 },
 {
  "번호": 36,
  "Name": "동물병원",
  "PhoneNumber": "02-2650-8275",
  "address": "서울특별시 양천구 신정동 321-6 센트럴프라자 203호",
  "Latitude": 37.5174938,
  "Longitude": 126.8654977,
  "BuildingName": "공원옆동물의료센터"
 },
 {
  "번호": 37,
  "Name": "동물병원",
  "address": "서울특별시 용산구 한강로3가 98",
  "Latitude": 37.5276547,
  "Longitude": 126.9622041,
  "BuildingName": "에스동물병원"
 },
 {
  "번호": 38,
  "Name": "동물병원",
  "PhoneNumber": "02-3427-6419",
  "address": "서울특별시 강동구 고덕동 191-3",
  "Latitude": 37.5585083,
  "Longitude": 127.1688145,
  "BuildingName": "피카소동물병원"
 },
 {
  "번호": 39,
  "Name": "동물병원",
  "PhoneNumber": "02-2038-8877",
  "address": "서울특별시 양천구 신정동 319 우림필유 102호",
  "Latitude": 37.520906,
  "Longitude": 126.8690513,
  "BuildingName": "상상동물병원"
 },
 {
  "번호": 40,
  "Name": "동물병원",
  "PhoneNumber": "02-2237-7582",
  "address": "서울특별시 중구 신당동 844 남산타운",
  "Latitude": 37.5478432,
  "Longitude": 127.0085782,
  "BuildingName": "힐스타운 동물병원"
 },
 {
  "번호": 41,
  "Name": "동물병원",
  "address": "서울특별시 강남구 청담동 100-17 502호",
  "Latitude": 37.5265497,
  "Longitude": 127.0461088,
  "BuildingName": "라퓨클레르 동물피부클리닉"
 },
 {
  "번호": 42,
  "Name": "동물병원",
  "PhoneNumber": "02-511-7522",
  "address": "서울특별시 강남구 청담동 46 베디베로스퀘어 2층",
  "Latitude": 37.5194404,
  "Longitude": 127.0490303,
  "BuildingName": "VIP 반려동물 암센터"
 },
 {
  "번호": 43,
  "Name": "동물병원",
  "PhoneNumber": 27925455,
  "address": "서울특별시 용산구 이촌동 300-23 한강맨션",
  "Latitude": 37.5182907,
  "Longitude": 126.9759433,
  "BuildingName": "이상윤동물병원"
 },
 {
  "번호": 44,
  "Name": "동물병원",
  "PhoneNumber": "02-2690-9990",
  "address": "서울특별시 강서구 화곡동 1026-12",
  "Latitude": 37.5445288,
  "Longitude": 126.8380418,
  "BuildingName": "나음동물의료센터"
 },
 {
  "번호": 45,
  "Name": "동물병원",
  "PhoneNumber": "02-2282-0119",
  "address": "서울특별시 성동구 금호동1가 526",
  "Latitude": 37.5541487,
  "Longitude": 127.0208712,
  "BuildingName": "조형선외과동물병원"
 },
 {
  "번호": 46,
  "Name": "동물병원",
  "PhoneNumber": "02-6953-7502",
  "address": "서울특별시 송파구 삼전동 28-2",
  "Latitude": 37.5037618,
  "Longitude": 127.0878801,
  "BuildingName": "리베동물메디컬센터"
 },
 {
  "번호": 47,
  "Name": "동물병원",
  "address": "서울특별시 강동구 둔촌동 618-13",
  "Latitude": 37.5329049,
  "Longitude": 127.1466835,
  "BuildingName": "힐동물병원"
 },
 {
  "번호": 48,
  "Name": "동물병원",
  "PhoneNumber": "02-441-2202",
  "address": "서울특별시 강동구 명일동 46-2 고덕역 효성해링턴 타워 더퍼스트 123호",
  "Latitude": 37.554732,
  "Longitude": 127.154625,
  "BuildingName": "아이안 동물의료센터"
 },
 {
  "번호": 50,
  "Name": "동물병원",
  "PhoneNumber": "02-521-0525",
  "address": "서울특별시 서초구 서초동 1600-11 서초레몬 201호",
  "Latitude": 37.4857398,
  "Longitude": 127.0153848,
  "BuildingName": "시니어 동물병원"
 },
 {
  "번호": 51,
  "Name": "동물병원",
  "PhoneNumber": "02-478-2208",
  "address": "서울특별시 강동구 길동 402-10",
  "Latitude": 37.5354082,
  "Longitude": 127.1444824,
  "BuildingName": "양지가축동물병원"
 },
 {
  "번호": 52,
  "Name": "동물병원",
  "PhoneNumber": "02-588-8661",
  "address": "서울특별시 서초구 방배동 444-15",
  "Latitude": 37.4782249,
  "Longitude": 126.9820813,
  "BuildingName": "동편동물혈액검진센터"
 },
 {
  "번호": 53,
  "Name": "동물병원",
  "PhoneNumber": 23069990,
  "address": "서울특별시 은평구 증산동 213-20 DMC센트럴자이 401동 상가 120, 130호",
  "Latitude": 37.5798218,
  "Longitude": 126.9016589,
  "BuildingName": "정든동물병원"
 },
 {
  "번호": 54,
  "Name": "동물병원",
  "address": "서울특별시 은평구 응암동 107-19",
  "Latitude": 37.5963263,
  "Longitude": 126.9197022,
  "BuildingName": "서울은내과동물병원"
 },
 {
  "번호": 55,
  "Name": "동물병원",
  "PhoneNumber": 226987582,
  "address": "서울특별시 양천구 신월동 602-1",
  "Latitude": 37.5205069999999,
  "Longitude": 126.8453872,
  "BuildingName": "24시월드펫동물메디컬센터"
 },
 {
  "번호": 56,
  "Name": "동물병원",
  "PhoneNumber": "02-448-6400",
  "address": "서울특별시 송파구 거여동 605-4",
  "Latitude": 37.4854629,
  "Longitude": 127.1424636,
  "BuildingName": "24시 스탠다드 동물의료센터"
 },
 {
  "번호": 57,
  "Name": "동물병원",
  "PhoneNumber": "02-6949-2475",
  "address": "서울특별시 강동구 성내동 549-1 씨네월드",
  "Latitude": 37.5285304,
  "Longitude": 127.1251485,
  "BuildingName": "더파크동물의료센터"
 },
 {
  "번호": 58,
  "Name": "동물병원",
  "PhoneNumber": "02-2039-8900",
  "address": "서울특별시 강북구 번동 411-8 해솔빌딩 1층 102호, B1층 102호",
  "Latitude": 37.6351964,
  "Longitude": 127.0285319,
  "BuildingName": "마인동물의료센터"
 },
 {
  "번호": 59,
  "Name": "동물병원",
  "PhoneNumber": "02-6953-7587",
  "address": "서울특별시 송파구 잠실동 27 잠실주공아파트",
  "Latitude": 37.5152448,
  "Longitude": 127.0948683,
  "BuildingName": "잠실동물병원"
 },
 {
  "번호": 60,
  "Name": "동물병원",
  "PhoneNumber": "02-515-8575",
  "address": "서울특별시 강남구 논현동 149-6",
  "Latitude": 37.5107907,
  "Longitude": 127.0278621,
  "BuildingName": "순수동물병원"
 },
 {
  "번호": 61,
  "Name": "동물병원",
  "address": "서울특별시 종로구 숭인동 20-138 지1층",
  "Latitude": 37.5805368,
  "Longitude": 127.01722,
  "BuildingName": "폴라동물병원"
 },
 {
  "번호": 62,
  "Name": "동물병원",
  "address": "서울특별시 강서구 화곡동 1060-30 남서울수영장",
  "Latitude": 37.5435074,
  "Longitude": 126.8428723,
  "BuildingName": "24시연동물의료센터"
 },
 {
  "번호": 63,
  "Name": "동물병원",
  "PhoneNumber": "02-529-7577",
  "address": "서울특별시 강남구 개포동 1191-4 지수빌딩",
  "Latitude": 37.4729678,
  "Longitude": 127.0498457,
  "BuildingName": "위드펫동물병원"
 },
 {
  "번호": 64,
  "Name": "동물병원",
  "PhoneNumber": "02-867-7776",
  "address": "서울특별시 금천구 시흥동 837",
  "Latitude": 37.4536287,
  "Longitude": 126.9063447,
  "BuildingName": "허브동물병원"
 },
 {
  "번호": 65,
  "Name": "동물병원",
  "PhoneNumber": "900-7555",
  "address": "서울특별시 도봉구 쌍문동 215-1",
  "Latitude": 37.6585049,
  "Longitude": 127.0326011,
  "BuildingName": "아이조은동물병원"
 },
 {
  "번호": 66,
  "Name": "동물병원",
  "PhoneNumber": "02-420-9993",
  "address": "서울특별시 송파구 송파동 103-29",
  "Latitude": 37.5032577,
  "Longitude": 127.1134375,
  "BuildingName": "한양동물병원"
 },
 {
  "번호": 67,
  "Name": "동물병원",
  "PhoneNumber": "0507-1350-7229",
  "address": "서울특별시 마포구 신수동 462 신촌숲아이파크",
  "Latitude": 37.5499797,
  "Longitude": 126.934979,
  "BuildingName": "신촌 숲 동물병원"
 },
 {
  "번호": 68,
  "Name": "동물병원",
  "address": "서울특별시 관악구 봉천동 300-17 관악구재향군인회",
  "Latitude": 37.4756641,
  "Longitude": 126.9587687,
  "BuildingName": "닥터펫보리 특수클리닉"
 },
 {
  "번호": 69,
  "Name": "동물병원",
  "PhoneNumber": "907-7512",
  "address": "서울특별시 도봉구 쌍문동 262-10 104호",
  "Latitude": 37.6561902,
  "Longitude": 127.0277183,
  "BuildingName": "사랑해요동물병원"
 },
 {
  "번호": 70,
  "Name": "동물병원",
  "PhoneNumber": "02-797-4408",
  "address": "서울특별시 강남구 역삼동 827-67",
  "Latitude": 37.4958617,
  "Longitude": 127.0322271,
  "BuildingName": "동물치과병원메이"
 },
 {
  "번호": 71,
  "Name": "동물병원",
  "PhoneNumber": 262170202,
  "address": "서울특별시 동대문구 답십리동 259-22",
  "Latitude": 37.5701264,
  "Longitude": 127.05692,
  "BuildingName": "동대문 루시드 동물메디컬센터"
 },
 {
  "번호": 72,
  "Name": "동물병원",
  "PhoneNumber": "02-2135-7228",
  "address": "서울특별시 영등포구 대림동 1127 e편한세상 영등포 아델포레",
  "Latitude": 37.4944058,
  "Longitude": 126.9070601,
  "BuildingName": "동물병원예지"
 },
 {
  "번호": 73,
  "Name": "동물병원",
  "PhoneNumber": "02-830-1494",
  "address": "서울특별시 송파구 방이동 180-3 올림픽타워빌",
  "Latitude": 37.5151269,
  "Longitude": 127.1155687,
  "BuildingName": "베를린 동물치과센터"
 },
 {
  "번호": 74,
  "Name": "동물병원",
  "PhoneNumber": "02-562-7959",
  "address": "서울특별시 강남구 역삼동 725-29 제이유34",
  "Latitude": 37.4999202,
  "Longitude": 127.0405174,
  "BuildingName": "우쭈쭈동물건강검진센터 역삼점"
 },
 {
  "번호": 75,
  "Name": "동물병원",
  "PhoneNumber": "02-936-5500",
  "address": "서울특별시 노원구 상계동 964-5 부흥빌딩",
  "Latitude": 37.6709957,
  "Longitude": 127.0564034,
  "BuildingName": "노원 바른 동물의료센터"
 },
 {
  "번호": 76,
  "Name": "동물병원",
  "address": "서울특별시 송파구 송파동 122-7",
  "Latitude": 37.5040824,
  "Longitude": 127.1138736,
  "BuildingName": "라온펫동물병원"
 },
 {
  "번호": 77,
  "Name": "동물병원",
  "PhoneNumber": "02-415-7555",
  "address": "서울특별시 송파구 방이동 115-4 금천빌딩",
  "Latitude": 37.5090932,
  "Longitude": 127.1149399,
  "BuildingName": "송파 마리동물병원"
 },
 {
  "번호": 78,
  "Name": "동물병원",
  "PhoneNumber": "02-423-5755",
  "address": "서울특별시 강남구 일원동 743 디에이치 자이 개포",
  "Latitude": 37.4909336,
  "Longitude": 127.0751203,
  "BuildingName": "나리울동물병원"
 },
 {
  "번호": 79,
  "Name": "동물병원",
  "PhoneNumber": "02-595-7588",
  "address": "서울특별시 서초구 방배동 755-5 오릭스오피스텔 202호",
  "Latitude": 37.4968212,
  "Longitude": 126.9856096,
  "BuildingName": "몽마르뜨 동물병원"
 },
 {
  "번호": 80,
  "Name": "동물병원",
  "PhoneNumber": "02-572-2772",
  "address": "서울특별시 강남구 개포동 158-8",
  "Latitude": 37.4827748,
  "Longitude": 127.0622169,
  "BuildingName": "디아동물병원"
 },
 {
  "번호": 81,
  "Name": "동물병원",
  "address": "서울특별시 중구 신당동 855 신당 파인힐 하나유보라",
  "Latitude": 37.5646201,
  "Longitude": 127.0246835,
  "BuildingName": "24시SD동물영상의료센터"
 },
 {
  "번호": 82,
  "Name": "동물병원",
  "PhoneNumber": "02-2039-0303",
  "address": "서울특별시 중구 신당동 855 신당 파인힐 하나유보라",
  "Latitude": 37.5646201,
  "Longitude": 127.0246835,
  "BuildingName": "24시SD동물의료센터성동"
 },
 {
  "번호": 83,
  "Name": "동물병원",
  "PhoneNumber": "02-441-7585",
  "address": "서울특별시 강동구 고덕동 210-1 고덕센트럴푸르지오 209호",
  "Latitude": 37.5576095,
  "Longitude": 127.1699516,
  "BuildingName": "고덕 동물의료센터"
 },
 {
  "번호": 84,
  "Name": "동물병원",
  "PhoneNumber": "02)946-0011",
  "address": "서울특별시 강북구 미아동 561-2 현대성우아파트",
  "Latitude": 37.6171833,
  "Longitude": 127.0220243,
  "BuildingName": "아이사랑동물병원 건강검진센터"
 },
 {
  "번호": 85,
  "Name": "동물병원",
  "PhoneNumber": "02-952-9111",
  "address": "서울특별시 노원구 상계동 1025-31 1층",
  "Latitude": 37.6744018,
  "Longitude": 127.0556148,
  "BuildingName": "나우동물의료센터"
 },
 {
  "번호": 86,
  "Name": "동물병원",
  "PhoneNumber": "070-8691-3121",
  "address": "서울특별시 강북구 미아동 137-24",
  "Latitude": 37.6189118,
  "Longitude": 127.0293978,
  "BuildingName": "모네동물피부과"
 },
 {
  "번호": 87,
  "Name": "동물병원",
  "PhoneNumber": "02-517-5585",
  "address": "서울특별시 강남구 삼성동 9-5 201호",
  "Latitude": 37.5151375,
  "Longitude": 127.0426527,
  "BuildingName": "강남예치과동물병원"
 },
 {
  "번호": 88,
  "Name": "동물병원",
  "address": "서울특별시 은평구 진관동 63 롯데몰 은평점",
  "Latitude": 37.6374333,
  "Longitude": 126.917884,
  "BuildingName": "아이러브펫동물병원 은평점"
 },
 {
  "번호": 89,
  "Name": "동물병원",
  "PhoneNumber": "02-2088-2878",
  "address": "서울특별시 송파구 오금동 95-1 이화빌딩",
  "Latitude": 37.5086171,
  "Longitude": 127.1340049,
  "BuildingName": "엘 동물병원"
 },
 {
  "번호": 90,
  "Name": "동물병원",
  "PhoneNumber": "02-2687-7582",
  "address": "서울특별시 구로구 항동 121-1 203, 204호",
  "Latitude": 37.4797448,
  "Longitude": 126.8229808,
  "BuildingName": "클로버 동물병원"
 },
 {
  "번호": 91,
  "Name": "동물병원",
  "PhoneNumber": "02-577-7579",
  "address": "서울특별시 강남구 개포동 1281 디에이치아너힐즈",
  "Latitude": 37.4841105,
  "Longitude": 127.0675212,
  "BuildingName": "다랑동물병원"
 },
 {
  "번호": 92,
  "Name": "동물병원",
  "PhoneNumber": "02-2694-7575",
  "address": "서울특별시 양천구 신월동 536-6 1층",
  "Latitude": 37.5191847,
  "Longitude": 126.843014,
  "BuildingName": "신월라온동물의료센터"
 },
 {
  "번호": 93,
  "Name": "동물병원",
  "PhoneNumber": "02-407-7579",
  "address": "서울특별시 송파구 장지동 884 위례2차아이파크",
  "Latitude": 37.479256,
  "Longitude": 127.1440079,
  "BuildingName": "위례 별 동물의료센터"
 },
 {
  "번호": 94,
  "Name": "동물병원",
  "PhoneNumber": 226918119,
  "address": "서울특별시 양천구 신월동 559-7 2층",
  "Latitude": 37.515315,
  "Longitude": 126.8408596,
  "BuildingName": "정말로동물병원"
 },
 {
  "번호": 95,
  "Name": "동물병원",
  "PhoneNumber": 234777677,
  "address": "서울특별시 은평구 응암동 603-52",
  "Latitude": 37.5856414,
  "Longitude": 126.915707,
  "BuildingName": "다솜동물병원"
 },
 {
  "번호": 96,
  "Name": "동물병원",
  "PhoneNumber": "02-2666-2611",
  "address": "서울특별시 강서구 내발산동 750 발산로얄타워",
  "Latitude": 37.5534781,
  "Longitude": 126.8264569,
  "BuildingName": "마음사랑 동물병원"
 },
 {
  "번호": 97,
  "Name": "동물병원",
  "PhoneNumber": 28497582,
  "address": "서울특별시 영등포구 도림동 216-2",
  "Latitude": 37.5090071,
  "Longitude": 126.8966183,
  "BuildingName": "도림하나동물병원"
 },
 {
  "번호": 98,
  "Name": "동물병원",
  "address": "서울특별시 강동구 둔촌동 99-7 2B호",
  "Latitude": 37.5281449,
  "Longitude": 127.1460958,
  "BuildingName": "양지동물병원"
 },
 {
  "번호": 99,
  "Name": "동물병원",
  "PhoneNumber": "02-2664-8275",
  "address": "서울특별시 강서구 내발산동 702-16",
  "Latitude": 37.5509071,
  "Longitude": 126.8365895,
  "BuildingName": "우장산동물의료센터"
 },
 {
  "번호": 100,
  "Name": "동물병원",
  "PhoneNumber": "02-831-0075",
  "address": "서울특별시 영등포구 신길동 324-49 영민빌딩 1층",
  "Latitude": 37.5057809,
  "Longitude": 126.9063202,
  "BuildingName": "다움동물병원"
 },
 {
  "번호": 101,
  "Name": "동물병원",
  "PhoneNumber": "02-6454-6182",
  "address": "서울특별시 성동구 행당동 377 서울숲 더샵 4층",
  "Latitude": 37.5551334,
  "Longitude": 127.0403659,
  "BuildingName": "바우라움동물병원"
 },
 {
  "번호": 102,
  "Name": "동물병원",
  "PhoneNumber": "02-457-0075",
  "address": "서울특별시 강동구 길동 236-7",
  "Latitude": 37.5341569,
  "Longitude": 127.1413865,
  "BuildingName": "동물영상진단센터\/나음고양이병원"
 },
 {
  "번호": 103,
  "Name": "동물병원",
  "PhoneNumber": "02-457-0075",
  "address": "서울특별시 강동구 길동 236-7",
  "Latitude": 37.5341569,
  "Longitude": 127.1413865,
  "BuildingName": "로얄동물메디컬센터 강동"
 },
 {
  "번호": 104,
  "Name": "동물병원",
  "PhoneNumber": "02-376-7675",
  "address": "서울특별시 마포구 성산동 151-6",
  "Latitude": 37.5694981,
  "Longitude": 126.9050212,
  "BuildingName": "키다리 동물병원"
 },
 {
  "번호": 105,
  "Name": "동물병원",
  "PhoneNumber": "02-6954-7522",
  "address": "서울특별시 마포구 염리동 14-149",
  "Latitude": 37.5467501,
  "Longitude": 126.9463276,
  "BuildingName": "서울준동물병원"
 },
 {
  "번호": 106,
  "Name": "동물병원",
  "PhoneNumber": "02-2039-9780",
  "address": "서울특별시 서초구 잠원동 72-2 반원상가",
  "Latitude": 37.5087645,
  "Longitude": 127.0035242,
  "BuildingName": "파파동물병원"
 },
 {
  "번호": 107,
  "Name": "동물병원",
  "PhoneNumber": "02-426-7979",
  "address": "서울특별시 강동구 강일동 75-10 골드프라자 202-203호",
  "Latitude": 37.5723891,
  "Longitude": 127.175125,
  "BuildingName": "메이플 동물의료센터"
 },
 {
  "번호": 108,
  "Name": "동물병원",
  "PhoneNumber": "02-459-7515",
  "address": "서울특별시 강남구 자곡동 670 강남센터뷰",
  "Latitude": 37.4737808,
  "Longitude": 127.1065697,
  "BuildingName": "얼바인동물병원"
 },
 {
  "번호": 109,
  "Name": "동물병원",
  "PhoneNumber": "02-3144-3253",
  "address": "서울특별시 마포구 상수동 402 래미안밤섬리베뉴 1",
  "Latitude": 37.5466232,
  "Longitude": 126.9254881,
  "BuildingName": "삼색이동물병원"
 },
 {
  "번호": 110,
  "Name": "동물병원",
  "PhoneNumber": "02-3394-7075",
  "address": "서울특별시 동대문구 답십리동 3-125",
  "Latitude": 37.5725825,
  "Longitude": 127.0652663,
  "BuildingName": "땅콩동물병원"
 },
 {
  "번호": 111,
  "Name": "동물병원",
  "PhoneNumber": 269527519,
  "address": "서울특별시 은평구 역촌동 7-15 대광빌딩",
  "Latitude": 37.6095895,
  "Longitude": 126.9168125,
  "BuildingName": "24시예담동물의료센터"
 },
 {
  "번호": 112,
  "Name": "동물병원",
  "PhoneNumber": "02-2039-9930",
  "address": "서울특별시 광진구 자양동 612-56",
  "Latitude": 37.5356847,
  "Longitude": 127.0819003,
  "BuildingName": "우주동물병원"
 },
 {
  "번호": 113,
  "Name": "동물병원",
  "PhoneNumber": "02-6949-3575",
  "address": "서울특별시 구로구 신도림동 435-10 신도림3차푸르지오아파트",
  "Latitude": 37.5068182,
  "Longitude": 126.8840082,
  "BuildingName": "24시 신도림S동물의료센터"
 },
 {
  "번호": 114,
  "Name": "동물병원",
  "PhoneNumber": "439-7582",
  "address": "서울특별시 중랑구 면목동 71-41",
  "Latitude": 37.5874954,
  "Longitude": 127.0941262,
  "BuildingName": "닥터멍동물병원"
 },
 {
  "번호": 115,
  "Name": "동물병원",
  "PhoneNumber": "02-6956-2280",
  "address": "서울특별시 용산구 한남동 737-4 1층",
  "Latitude": 37.5356651,
  "Longitude": 126.9988257,
  "BuildingName": "더벳한남동물병원"
 },
 {
  "번호": 116,
  "Name": "동물병원",
  "PhoneNumber": 269547544,
  "address": "서울특별시 도봉구 쌍문동 256 에벤에셀아파트",
  "Latitude": 37.643632,
  "Longitude": 127.0307472,
  "BuildingName": "보듬동물병원"
 },
 {
  "번호": 118,
  "Name": "동물병원",
  "PhoneNumber": "02-511-7522",
  "address": "서울특별시 강남구 청담동 46 베디베로스퀘어",
  "Latitude": 37.519448,
  "Longitude": 127.0489897,
  "BuildingName": "VIP동물의료센터 청담점"
 },
 {
  "번호": 119,
  "Name": "동물병원",
  "PhoneNumber": "02-2237-7582",
  "address": "서울특별시 강남구 청담동 46 베디베로스퀘어",
  "Latitude": 37.519448,
  "Longitude": 127.0489897,
  "BuildingName": "놀로동물행동클리닉"
 },
 {
  "번호": 120,
  "Name": "동물병원",
  "PhoneNumber": "02-511-7522",
  "address": "서울특별시 강남구 청담동 46 베디베로스퀘어 7층",
  "Latitude": 37.5194404,
  "Longitude": 127.0490303,
  "BuildingName": "VIP동물한방재활의학센터by.Dr.신사경"
 },
 {
  "번호": 121,
  "Name": "동물병원",
  "PhoneNumber": "02-2135-5866",
  "address": "서울특별시 구로구 고척동 50-48 고척프라자",
  "Latitude": 37.5038001,
  "Longitude": 126.8628007,
  "BuildingName": "올리브동물병원"
 },
 {
  "번호": 122,
  "Name": "동물병원",
  "PhoneNumber": "02-3428-0045",
  "address": "서울특별시 강동구 고덕동 210-1 고덕센트럴푸르지오 메가스퀘어동 225호",
  "Latitude": 37.5576095,
  "Longitude": 127.1699516,
  "BuildingName": "센트럴동물병원"
 },
 {
  "번호": 123,
  "Name": "동물병원",
  "PhoneNumber": "02-451-7582",
  "address": "서울특별시 강남구 일원동 645-11 1층, 지하1층",
  "Latitude": 37.4909714,
  "Longitude": 127.0875109,
  "BuildingName": "임재성동물의료센터"
 },
 {
  "번호": 124,
  "Name": "동물병원",
  "PhoneNumber": "02-6956-0040",
  "address": "서울특별시 성북구 돈암동 644 돈암코오롱하늘채",
  "Latitude": 37.5991664,
  "Longitude": 127.0126899,
  "BuildingName": "원러브동물의료센터"
 },
 {
  "번호": 125,
  "Name": "동물병원",
  "address": "서울특별시 강남구 신사동 587-13 2층",
  "Latitude": 37.5207257,
  "Longitude": 127.0299801,
  "BuildingName": "스마트 정형외과 신경외과 동물병원"
 },
 {
  "번호": 126,
  "Name": "동물병원",
  "PhoneNumber": "070-4349-3357",
  "address": "서울특별시 송파구 잠실동 242-2",
  "Latitude": 37.5077669,
  "Longitude": 127.0884542,
  "BuildingName": "도그마루 동물병원"
 },
 {
  "번호": 127,
  "Name": "동물병원",
  "PhoneNumber": "02-6956-7599",
  "address": "서울특별시 은평구 불광동 276-32",
  "Latitude": 37.6123503,
  "Longitude": 126.9317118,
  "BuildingName": "동물병원 움"
 },
 {
  "번호": 128,
  "Name": "동물병원",
  "PhoneNumber": "949-7577",
  "address": "서울특별시 중랑구 묵동 238-8 하태윤산부인과",
  "Latitude": 37.6129198,
  "Longitude": 127.0767919,
  "BuildingName": "치료해 주오"
 },
 {
  "번호": 129,
  "Name": "동물병원",
  "PhoneNumber": "070-4351-3854",
  "address": "서울특별시 노원구 상계동 318-2 (주)노원24시동물의료센터 3층",
  "Latitude": 37.6531769,
  "Longitude": 127.0681256,
  "BuildingName": "앤(N)고양이병원"
 },
 {
  "번호": 130,
  "Name": "동물병원",
  "address": "서울특별시 영등포구 양평동4가 281 르네상스 한강 오피스텔",
  "Latitude": 37.5367037,
  "Longitude": 126.8995891,
  "BuildingName": "플러스동물메디컬센터"
 },
 {
  "번호": 131,
  "Name": "동물병원",
  "PhoneNumber": "02-6925-2225",
  "address": "서울특별시 서초구 방배동 926-3",
  "Latitude": 37.484953,
  "Longitude": 126.9940394,
  "BuildingName": "서울종합동물병원방배"
 },
 {
  "번호": 132,
  "Name": "동물병원",
  "PhoneNumber": "02-2217-8930",
  "address": "서울특별시 동대문구 답십리동 52-3",
  "Latitude": 37.5719483,
  "Longitude": 127.0575928,
  "BuildingName": "아이원 동물병원"
 },
 {
  "번호": 133,
  "Name": "동물병원",
  "PhoneNumber": "02-402-3270",
  "address": "서울특별시 송파구 문정동 652-5 문정아이파크",
  "Latitude": 37.4820257,
  "Longitude": 127.1221389,
  "BuildingName": "동물병원알루"
 },
 {
  "번호": 134,
  "Name": "동물병원",
  "PhoneNumber": 220887578,
  "address": "서울특별시 구로구 항동 128-14 와이제이프라자 104, 204호",
  "Latitude": 37.4809307,
  "Longitude": 126.82462,
  "BuildingName": "항동푸른숲동물병원"
 },
 {
  "번호": 135,
  "Name": "동물병원",
  "address": "서울특별시 은평구 녹번동 28-1",
  "Latitude": 37.6058675,
  "Longitude": 126.9336167,
  "BuildingName": "어울동물의료센터"
 },
 {
  "번호": 136,
  "Name": "동물병원",
  "PhoneNumber": "02-443-6933",
  "address": "서울특별시 송파구 오금동 151-1 재상빌딩",
  "Latitude": 37.500539,
  "Longitude": 127.1370831,
  "BuildingName": "채움동물의료센터"
 },
 {
  "번호": 137,
  "Name": "동물병원",
  "PhoneNumber": "02-2060-7975",
  "address": "서울특별시 구로구 개봉동 403-229 , 조양빌딩1층",
  "Latitude": 37.4932221,
  "Longitude": 126.8564207,
  "BuildingName": "모두동물병원"
 },
 {
  "번호": 138,
  "Name": "동물병원",
  "PhoneNumber": "02-2653-3335",
  "address": "서울특별시 양천구 신정동 324-7 대림아크로빌 102호",
  "Latitude": 37.5154556,
  "Longitude": 126.8597603,
  "BuildingName": "산책동물병원"
 },
 {
  "번호": 139,
  "Name": "동물병원",
  "PhoneNumber": "02-2253-2233",
  "address": "서울특별시 중구 황학동 1596",
  "Latitude": 37.5691104,
  "Longitude": 127.0232663,
  "BuildingName": "웰튼동물의료센터"
 },
 {
  "번호": 140,
  "Name": "동물병원",
  "PhoneNumber": "02-2235-1533",
  "address": "서울특별시 강서구 등촌동 680 한울빌딩",
  "Latitude": 37.5628661,
  "Longitude": 126.8403997,
  "BuildingName": "차지우동물병원"
 },
 {
  "번호": 141,
  "Name": "동물병원",
  "PhoneNumber": "02-470-4707",
  "address": "서울특별시 중랑구 면목동 172-93번지",
  "Latitude": 37.5833556,
  "Longitude": 127.0794686,
  "BuildingName": "레미 동물병원"
 },
 {
  "번호": 142,
  "Name": "동물병원",
  "PhoneNumber": "02-872-7582",
  "address": "서울특별시 관악구 봉천동 1563-6",
  "Latitude": 37.479784,
  "Longitude": 126.9429206,
  "BuildingName": "비바동물병원"
 },
 {
  "번호": 143,
  "Name": "동물병원",
  "PhoneNumber": "02-545-8952",
  "address": "서울특별시 강남구 논현동 159-23 보령빌딩 104호",
  "Latitude": 37.5089723,
  "Longitude": 127.0266848,
  "BuildingName": "커비동물병원"
 },
 {
  "번호": 144,
  "Name": "동물병원",
  "PhoneNumber": "02-733-6030",
  "address": "서울특별시 종로구 신교동 70-10번지",
  "Latitude": 37.5844499,
  "Longitude": 126.9699805,
  "BuildingName": "선동물병원"
 },
 {
  "번호": 145,
  "Name": "동물병원",
  "PhoneNumber": "02-2636-7645",
  "address": "서울특별시 구로구 구로동 631-23 서울반려동물교육센터",
  "Latitude": 37.4979302,
  "Longitude": 126.8710134,
  "BuildingName": "서울동물복지지원센터 동물병원(구로)"
 },
 {
  "번호": 146,
  "Name": "동물병원",
  "PhoneNumber": "02-6953-7512",
  "address": "서울특별시 강동구 고덕동 172-9",
  "Latitude": 37.5606648,
  "Longitude": 127.1704374,
  "BuildingName": "가온동물병원"
 },
 {
  "번호": 147,
  "Name": "동물병원",
  "PhoneNumber": "02-393-7577",
  "address": "서울특별시 서대문구 북아현동 251-40",
  "Latitude": 37.5572091,
  "Longitude": 126.9492687,
  "BuildingName": "링크동물의료센터"
 },
 {
  "번호": 148,
  "Name": "동물병원",
  "PhoneNumber": "02-2607-7582",
  "address": "서울특별시 양천구 신월동 1002-3",
  "Latitude": 37.5162771,
  "Longitude": 126.8377522,
  "BuildingName": "신월동물병원"
 },
 {
  "번호": 149,
  "Name": "동물병원",
  "PhoneNumber": 29117582,
  "address": "서울특별시 성북구 장위동 173-114 래미안장위퍼스트하이",
  "Latitude": 37.6190851,
  "Longitude": 127.0506754,
  "BuildingName": "퍼스트동물병원"
 },
 {
  "번호": 150,
  "Name": "동물병원",
  "PhoneNumber": "02-384-3100",
  "address": "서울특별시 은평구 진관동 67-1번지 은평구 뉴타운2지구 에코테라스 102호",
  "Latitude": 37.638198,
  "Longitude": 126.919223,
  "BuildingName": "피움동물병원"
 },
 {
  "번호": 151,
  "Name": "동물병원",
  "PhoneNumber": 28567582,
  "address": "서울특별시 구로구 고척동 76-38번지 원메디타운 201호",
  "Latitude": 37.4980711,
  "Longitude": 126.8642182,
  "BuildingName": "고척원동물의료센터"
 },
 {
  "번호": 152,
  "Name": "동물병원",
  "PhoneNumber": "02-2672-7582",
  "address": "서울특별시 구로구 신도림동 400-1 110호",
  "Latitude": 37.5061758,
  "Longitude": 126.8771417,
  "BuildingName": "구로다나은동물병원"
 },
 {
  "번호": 153,
  "Name": "동물병원",
  "PhoneNumber": 24697975,
  "address": "서울특별시 성동구 성수동1가 656-968번지 영화빌딩 2층",
  "Latitude": 37.5468653,
  "Longitude": 127.0448689,
  "BuildingName": "오늘동물병원"
 },
 {
  "번호": 154,
  "Name": "동물병원",
  "PhoneNumber": "02-6949-0413",
  "address": "서울특별시 양천구 목동 753-12",
  "Latitude": 37.5372665,
  "Longitude": 126.8718683,
  "BuildingName": "봄날동물병원"
 },
 {
  "번호": 155,
  "Name": "동물병원",
  "PhoneNumber": 226627975,
  "address": "서울특별시 강서구 마곡동 798-14번지 205호",
  "Latitude": 37.5585339,
  "Longitude": 126.82472,
  "BuildingName": "모모동물병원"
 },
 {
  "번호": 156,
  "Name": "동물병원",
  "PhoneNumber": "02-2135-6575",
  "address": "서울특별시 송파구 가락동 479 헬리오시티",
  "Latitude": 37.4956865,
  "Longitude": 127.1184047,
  "BuildingName": "헬리오동물병원"
 },
 {
  "번호": 157,
  "Name": "동물병원",
  "PhoneNumber": "02-6949-5775",
  "address": "서울특별시 강동구 길동 413-46 베스트올",
  "Latitude": 37.5357004,
  "Longitude": 127.1388826,
  "BuildingName": "펫트리동물의료센터"
 },
 {
  "번호": 158,
  "Name": "동물병원",
  "PhoneNumber": "02-971-5955",
  "address": "서울특별시 노원구 공릉동 596-5",
  "Latitude": 37.6205831,
  "Longitude": 127.0749431,
  "BuildingName": "골드퍼피동물병원 공릉점"
 },
 {
  "번호": 159,
  "Name": "동물병원",
  "PhoneNumber": "02-812-7585",
  "address": "서울특별시 동작구 상도1동 623",
  "Latitude": 37.5043895,
  "Longitude": 126.9493961,
  "BuildingName": "품 동물의료센터"
 },
 {
  "번호": 160,
  "Name": "동물병원",
  "PhoneNumber": "02-878-9978",
  "address": "서울특별시 관악구 봉천동 1612-1번지",
  "Latitude": 37.4794328,
  "Longitude": 126.9556902,
  "BuildingName": "봉천현대동물병원"
 },
 {
  "번호": 161,
  "Name": "동물병원",
  "PhoneNumber": "02-561-3375",
  "address": "서울특별시 강남구 역삼동 838-9 거암빌딩",
  "Latitude": 37.4902059,
  "Longitude": 127.0329695,
  "BuildingName": "아이힐 동물병원"
 },
 {
  "번호": 162,
  "Name": "동물병원",
  "PhoneNumber": 226627515,
  "address": "서울특별시 강서구 방화동 245-31",
  "Latitude": 37.5686123,
  "Longitude": 126.8163466,
  "BuildingName": "마곡M동물의료센터"
 },
 {
  "번호": 163,
  "Name": "동물병원",
  "PhoneNumber": "02-2213-0075",
  "address": "서울특별시 동대문구 장안동 435-6번지",
  "Latitude": 37.5650701,
  "Longitude": 127.0673872,
  "BuildingName": "아인스동물병원"
 },
 {
  "번호": 164,
  "Name": "동물병원",
  "PhoneNumber": "02-2690-7579",
  "address": "서울특별시 양천구 신월동 984-1번지 인산빌딩",
  "Latitude": 37.5174216,
  "Longitude": 126.8377445,
  "BuildingName": "해맞이 동물병원"
 },
 {
  "번호": 165,
  "Name": "동물병원",
  "PhoneNumber": "02-544-2882",
  "address": "서울특별시 강남구 청담동 52-6 301호",
  "Latitude": 37.5245027,
  "Longitude": 127.0527589,
  "BuildingName": "청담리덴동물치과병원"
 },
 {
  "번호": 166,
  "Name": "동물병원",
  "PhoneNumber": "02-982-7975",
  "address": "서울특별시 성북구 길음동 498-1 래미안길음센터피스",
  "Latitude": 37.6113506,
  "Longitude": 127.0269359,
  "BuildingName": "더편한동물병원"
 },
 {
  "번호": 167,
  "Name": "동물병원",
  "PhoneNumber": "02-333-7750",
  "address": "서울특별시 서대문구 연희동 79-12",
  "Latitude": 37.5727708999999,
  "Longitude": 126.9357592,
  "BuildingName": "헬로우 동물병원"
 },
 {
  "번호": 168,
  "Name": "동물병원",
  "PhoneNumber": "02-927-7517",
  "address": "서울특별시 성북구 동선동5가 1번지",
  "Latitude": 37.5945143,
  "Longitude": 127.0163274,
  "BuildingName": "성신동물병원"
 },
 {
  "번호": 169,
  "Name": "동물병원",
  "PhoneNumber": "02-501-8275",
  "address": "서울특별시 강남구 대치동 990-1 무진빌딩",
  "Latitude": 37.4994149,
  "Longitude": 127.0634446,
  "BuildingName": "대치동물메디컬센터"
 },
 {
  "번호": 170,
  "Name": "동물병원",
  "PhoneNumber": "02-2295-9888",
  "address": "서울특별시 성동구 하왕십리동 1070 센트라스상가 D동 106호",
  "Latitude": 37.5661099999999,
  "Longitude": 127.0276467,
  "BuildingName": "베이지동물병원"
 },
 {
  "번호": 171,
  "Name": "동물병원",
  "PhoneNumber": "02-3474-7582",
  "address": "서울특별시 서초구 서초동 1605-5번지 서광빌딩",
  "Latitude": 37.4868231,
  "Longitude": 127.0219953,
  "BuildingName": "서초이음동물병원"
 },
 {
  "번호": 172,
  "Name": "동물병원",
  "PhoneNumber": "02-433-7515",
  "address": "서울특별시 중랑구 신내동 563-2번지",
  "Latitude": 37.6050484,
  "Longitude": 127.0956274,
  "BuildingName": "아이봄 동물병원"
 },
 {
  "번호": 173,
  "Name": "동물병원",
  "PhoneNumber": "955-6530",
  "address": "서울특별시 도봉구 도봉동 636-12 킴스타워",
  "Latitude": 37.6694186,
  "Longitude": 127.0464995,
  "BuildingName": "김미경 동물병원"
 },
 {
  "번호": 174,
  "Name": "동물병원",
  "PhoneNumber": "02-2642-7588",
  "address": "서울특별시 양천구 신정동 982-4 M1~2층",
  "Latitude": 37.5223384,
  "Longitude": 126.8604835,
  "BuildingName": "우리들동물메디컬센터"
 },
 {
  "번호": 175,
  "Name": "동물병원",
  "PhoneNumber": "02-931-1333",
  "address": "서울특별시 노원구 상계동 763-5",
  "Latitude": 37.6478258,
  "Longitude": 127.0623291,
  "BuildingName": "브이아이피 동물의료센터"
 },
 {
  "번호": 176,
  "Name": "동물병원",
  "PhoneNumber": "02-2634-8275",
  "address": "서울특별시 영등포구 영등포동4가 442 타임스퀘어",
  "Latitude": 37.5170751,
  "Longitude": 126.9033411,
  "BuildingName": "러브펫 동물병원"
 },
 {
  "번호": 177,
  "Name": "동물병원",
  "PhoneNumber": "02-3471-0075",
  "address": "서울특별시 서초구 서초동 1332-2 대한무지개종합상가 103호",
  "Latitude": 37.4923671,
  "Longitude": 127.0258472,
  "BuildingName": "에이비씨(ABC)동물병원"
 },
 {
  "번호": 178,
  "Name": "동물병원",
  "PhoneNumber": "02-6956-7502",
  "address": "서울특별시 중구 을지로5가 133-1 뉴천지관광호텔",
  "Latitude": 37.5659043,
  "Longitude": 127.0033344,
  "BuildingName": "서울동물영상종양센터"
 },
 {
  "번호": 179,
  "Name": "동물병원",
  "PhoneNumber": "02-6956-7502",
  "address": "서울특별시 중구 을지로5가 133-1 뉴천지관광호텔",
  "Latitude": 37.5659043,
  "Longitude": 127.0033344,
  "BuildingName": "헬릭스동물암센터"
 },
 {
  "번호": 180,
  "Name": "동물병원",
  "PhoneNumber": "02-6965-7502",
  "address": "서울특별시 중구 을지로5가 133-1 뉴천지관광호텔",
  "Latitude": 37.5659043,
  "Longitude": 127.0033344,
  "BuildingName": "헬릭스동물심장수술센터"
 },
 {
  "번호": 181,
  "Name": "동물병원",
  "PhoneNumber": 264546182,
  "address": "서울특별시 성동구 행당동 155-1번지 파크에비뉴 엔터식스",
  "Latitude": 37.5620177,
  "Longitude": 127.0383628,
  "BuildingName": "바우라움동물병원"
 },
 {
  "번호": 182,
  "Name": "동물병원",
  "PhoneNumber": "02-6949-3038",
  "address": "서울특별시 서초구 반포동 739-32 제이디 빌딩",
  "Latitude": 37.5047963,
  "Longitude": 127.0223582,
  "BuildingName": "서초 이태형 동물병원"
 },
 {
  "번호": 183,
  "Name": "동물병원",
  "PhoneNumber": "02-2677-2720",
  "address": "서울특별시 영등포구 문래동3가 84-2번지 동국메뜨리앙",
  "Latitude": 37.5206222,
  "Longitude": 126.8899239,
  "BuildingName": "캣앤캣 고양이 병원"
 },
 {
  "번호": 184,
  "Name": "동물병원",
  "PhoneNumber": "02-2234-7585",
  "address": "서울특별시 중구 황학동 2545 롯데캐슬베네치아",
  "Latitude": 37.5709778,
  "Longitude": 127.021434,
  "BuildingName": "웰니스클리닉(청계천점)"
 },
 {
  "번호": 185,
  "Name": "동물병원",
  "PhoneNumber": "02-545-4975",
  "address": "서울특별시 강남구 신사동 586-3 영석빌딩",
  "Latitude": 37.5212017,
  "Longitude": 127.027746,
  "BuildingName": "에이드동물병원"
 },
 {
  "번호": 186,
  "Name": "동물병원",
  "PhoneNumber": "02-832-7975",
  "address": "서울특별시 영등포구 신길동 4945번지 래미안프레비뉴",
  "Latitude": 37.50492,
  "Longitude": 126.9081665,
  "BuildingName": "라이프 동물병원"
 },
 {
  "번호": 187,
  "Name": "동물병원",
  "PhoneNumber": "02-2632-2307",
  "address": "서울특별시 영등포구 영등포동7가 203번지 아크로타워 스퀘어",
  "Latitude": 37.523105,
  "Longitude": 126.9072522,
  "BuildingName": "영등포아크로 동물병원"
 },
 {
  "번호": 188,
  "Name": "동물병원",
  "address": "서울특별시 송파구 거여동 20-5번지 정림빌딩",
  "Latitude": 37.4945858,
  "Longitude": 127.1419259,
  "BuildingName": "온마음 동물메디컬센터"
 },
 {
  "번호": 189,
  "Name": "동물병원",
  "PhoneNumber": "2666-7990",
  "address": "서울특별시 강서구 마곡동 743-4번지 마곡엠밸리7단지",
  "Latitude": 37.5653878,
  "Longitude": 126.8234577,
  "BuildingName": "참동물병원"
 },
 {
  "번호": 190,
  "Name": "동물병원",
  "PhoneNumber": "02-2038-7555",
  "address": "서울특별시 중구 신당동 102-6번지",
  "Latitude": 37.5634982,
  "Longitude": 127.0159751,
  "BuildingName": "메종동물병원"
 },
 {
  "번호": 191,
  "Name": "동물병원",
  "PhoneNumber": 234094640,
  "address": "서울특별시 성동구 송정동 79-2번지",
  "Latitude": 37.5485283,
  "Longitude": 127.0671999,
  "BuildingName": "수동물병원"
 },
 {
  "번호": 192,
  "Name": "동물병원",
  "PhoneNumber": "02-6964-8276",
  "address": "서울특별시 은평구 녹번동 215",
  "Latitude": 37.6014138,
  "Longitude": 126.9313495,
  "BuildingName": "치유동물의료센터"
 },
 {
  "번호": 193,
  "Name": "동물병원",
  "PhoneNumber": "02-946-0011",
  "address": "서울특별시 강북구 미아동 561-2번지 현대성우아파트 102동 110호",
  "Latitude": 37.6171833,
  "Longitude": 127.0220243,
  "BuildingName": "아이사랑동물병원"
 },
 {
  "번호": 194,
  "Name": "동물병원",
  "PhoneNumber": "02-719-8275",
  "address": "서울특별시 용산구 청파동2가 90-20번지 지상1층",
  "Latitude": 37.5449793,
  "Longitude": 126.9694907,
  "BuildingName": "원스동물병원"
 },
 {
  "번호": 195,
  "Name": "동물병원",
  "PhoneNumber": "6369-0075",
  "address": "서울특별시 도봉구 도봉동 623-103번지 1층",
  "Latitude": 37.6721946,
  "Longitude": 127.0463662,
  "BuildingName": "빛가온동물병원"
 },
 {
  "번호": 196,
  "Name": "동물병원",
  "PhoneNumber": "3491-8000",
  "address": "서울특별시 도봉구 방학동 680-1 1층",
  "Latitude": 37.6644014,
  "Longitude": 127.0420621,
  "BuildingName": "현대종합동물병원"
 },
 {
  "번호": 197,
  "Name": "동물병원",
  "PhoneNumber": "02-6956-2475",
  "address": "서울특별시 관악구 봉천동 1673-21 1층 103호",
  "Latitude": 37.4800036,
  "Longitude": 126.9569226,
  "BuildingName": "24시 굿케어동물의료센터"
 },
 {
  "번호": 198,
  "Name": "동물병원",
  "PhoneNumber": "02-2232-9702",
  "address": "서울특별시 중구 신당동 353-130",
  "Latitude": 37.5520737,
  "Longitude": 127.0080362,
  "BuildingName": "애니컴 메디컬센터"
 },
 {
  "번호": 199,
  "Name": "동물병원",
  "PhoneNumber": "02-426-7722",
  "address": "서울특별시 강동구 강일동 679-2번지 MIDC빌딩",
  "Latitude": 37.5646796,
  "Longitude": 127.1739898,
  "BuildingName": "아프리카동물병원"
 },
 {
  "번호": 200,
  "Name": "동물병원",
  "PhoneNumber": "02-455-5975",
  "address": "서울특별시 광진구 자양동 681",
  "Latitude": 37.5323742,
  "Longitude": 127.0857526,
  "BuildingName": "아이본 동물병원"
 },
 {
  "번호": 201,
  "Name": "동물병원",
  "PhoneNumber": "0507-1375-5852",
  "address": "서울특별시 송파구 문정동 652-4 힐스테이트에코문정상가 1층 120,121호",
  "Latitude": 37.4825701,
  "Longitude": 127.1228829,
  "BuildingName": "문정힐스 동물병원"
 },
 {
  "번호": 202,
  "Name": "동물병원",
  "PhoneNumber": "02-566-5852",
  "address": "서울특별시 강남구 역삼동 834-45번지 동광빌딩 1층",
  "Latitude": 37.4942254,
  "Longitude": 127.0347102,
  "BuildingName": "하나카동물병원"
 },
 {
  "번호": 203,
  "Name": "동물병원",
  "PhoneNumber": "02-941-7900",
  "address": "서울특별시 강북구 미아동 42-11 덕신빌딩 4층",
  "Latitude": 37.6095305,
  "Longitude": 127.0306021,
  "BuildingName": "24시루시드동물메디컬센터"
 },
 {
  "번호": 204,
  "Name": "동물병원",
  "PhoneNumber": "02-2643-2777",
  "address": "서울특별시 양천구 목동 721-1번지 목동한강팰리스",
  "Latitude": 37.5400788,
  "Longitude": 126.8639842,
  "BuildingName": "가온동물병원"
 },
 {
  "번호": 205,
  "Name": "동물병원",
  "PhoneNumber": "02-549-9773",
  "address": "서울특별시 강남구 압구정동 426번지 현대아파트 상가 1동 201호",
  "Latitude": 37.5271478,
  "Longitude": 127.0334517,
  "BuildingName": "튼튼동물병원"
 },
 {
  "번호": 206,
  "Name": "동물병원",
  "PhoneNumber": 26991222,
  "address": "서울특별시 강서구 염창동 246-11번지",
  "Latitude": 37.5521636,
  "Longitude": 126.8708352,
  "BuildingName": "푸른들동물병원"
 },
 {
  "번호": 207,
  "Name": "동물병원",
  "PhoneNumber": "02-932-8575",
  "address": "서울특별시 노원구 상계동 746-4 명지프라자빌딩 102호",
  "Latitude": 37.6503872,
  "Longitude": 127.0613201,
  "BuildingName": "우리 동물병원"
 },
 {
  "번호": 208,
  "Name": "동물병원",
  "PhoneNumber": "955-8400",
  "address": "서울특별시 도봉구 도봉동 562-26",
  "Latitude": 37.6826754999999,
  "Longitude": 127.0455403,
  "BuildingName": "도담동물병원"
 },
 {
  "번호": 209,
  "Name": "동물병원",
  "PhoneNumber": "02-546-9539",
  "address": "서울특별시 강남구 논현동 88-4 양현빌딩 2층\/5층",
  "Latitude": 37.5151523,
  "Longitude": 127.0323757,
  "BuildingName": "최영민 동물의료센터"
 },
 {
  "번호": 210,
  "Name": "동물병원",
  "PhoneNumber": "02-2088-7775",
  "address": "서울특별시 송파구 방이동 108-7",
  "Latitude": 37.510883,
  "Longitude": 127.1114953,
  "BuildingName": "샤인동물메디컬센터"
 },
 {
  "번호": 211,
  "Name": "동물병원",
  "PhoneNumber": "02-6383-0303",
  "address": "서울특별시 마포구 공덕동 404 풍림브이아이피텔",
  "Latitude": 37.546004,
  "Longitude": 126.9521857,
  "BuildingName": "콩닥 동물병원"
 },
 {
  "번호": 212,
  "Name": "동물병원",
  "PhoneNumber": "02-930-7161",
  "address": "서울특별시 노원구 상계동 1025-32번지 1층",
  "Latitude": 37.6735706,
  "Longitude": 127.055823,
  "BuildingName": "서정동물병원"
 },
 {
  "번호": 213,
  "Name": "동물병원",
  "PhoneNumber": "02-593-7575",
  "address": "서울특별시 서초구 반포동 89-7",
  "Latitude": 37.4964162,
  "Longitude": 126.9983828,
  "BuildingName": "이을동물병원"
 },
 {
  "번호": 214,
  "Name": "동물병원",
  "PhoneNumber": "02-2088-1375",
  "address": "서울특별시 마포구 염리동 156-1",
  "Latitude": 37.5461302,
  "Longitude": 126.9451195,
  "BuildingName": "아이웰 동물의료센터"
 },
 {
  "번호": 215,
  "Name": "동물병원",
  "PhoneNumber": "02-358-7582",
  "address": "서울특별시 은평구 대조동 223-13번지 1층",
  "Latitude": 37.6131982,
  "Longitude": 126.9178719,
  "BuildingName": "연서동물종합병원"
 },
 {
  "번호": 216,
  "Name": "동물병원",
  "PhoneNumber": "02-2647-1772",
  "address": "서울특별시 양천구 목동 783-2",
  "Latitude": 37.5351276,
  "Longitude": 126.8637766,
  "BuildingName": "하니동물병원"
 },
 {
  "번호": 217,
  "Name": "동물병원",
  "PhoneNumber": "993-0075",
  "address": "서울특별시 도봉구 창동 661-64",
  "Latitude": 37.6500753,
  "Longitude": 127.0359277,
  "BuildingName": "둘리동물병원"
 },
 {
  "번호": 218,
  "Name": "동물병원",
  "PhoneNumber": "02-6933-0113",
  "address": "서울특별시 영등포구 당산동4가 94-1번지 당산2차삼성아파트",
  "Latitude": 37.5278527,
  "Longitude": 126.8984322,
  "BuildingName": "그림책 읽어주는 동물병원"
 },
 {
  "번호": 219,
  "Name": "동물병원",
  "PhoneNumber": "02-715-7575",
  "address": "서울특별시 마포구 구수동 56-8",
  "Latitude": 37.5468575,
  "Longitude": 126.9326554,
  "BuildingName": "산책 동물병원"
 },
 {
  "번호": 220,
  "Name": "동물병원",
  "PhoneNumber": "0507-1330-1480",
  "address": "서울특별시 송파구 잠실동 40-1 롯데월드 1층 S-911호",
  "Latitude": 37.5112862,
  "Longitude": 127.0979392,
  "BuildingName": "웰니스동물병원(롯데월드점)"
 },
 {
  "번호": 221,
  "Name": "동물병원",
  "PhoneNumber": "02-2203-7975",
  "address": "서울특별시 송파구 석촌동 2-9 금보 2층",
  "Latitude": 37.5049771,
  "Longitude": 127.097397,
  "BuildingName": "잠실베스트동물병원 수술재활센터"
 },
 {
  "번호": 222,
  "Name": "동물병원",
  "PhoneNumber": "02-532-5119",
  "address": "서울특별시 서초구 방배동 2100",
  "Latitude": 37.4910525,
  "Longitude": 126.9845609,
  "BuildingName": "헤이븐동물병원"
 },
 {
  "번호": 223,
  "Name": "동물병원",
  "PhoneNumber": "02-888-8807",
  "address": "서울특별시 관악구 신림동 408-143번지 1층",
  "Latitude": 37.4772314,
  "Longitude": 126.9352616,
  "BuildingName": "서울종합동물병원"
 },
 {
  "번호": 224,
  "Name": "동물병원",
  "PhoneNumber": "02-6403-1750",
  "address": "서울특별시 강동구 길동 345-5번지",
  "Latitude": 37.5411846,
  "Longitude": 127.1430478,
  "BuildingName": "사랑동물병원"
 },
 {
  "번호": 225,
  "Name": "동물병원",
  "PhoneNumber": "02-486-4252",
  "address": "서울특별시 강동구 둔촌동 53번지 원경빌딩",
  "Latitude": 37.5339307,
  "Longitude": 127.1431488,
  "BuildingName": "김태화동물병원"
 },
 {
  "번호": 226,
  "Name": "동물병원",
  "PhoneNumber": "02-3142-7298",
  "address": "서울특별시 마포구 서교동 444-5",
  "Latitude": 37.5533797999999,
  "Longitude": 126.9122367,
  "BuildingName": "이층애 고양이동물병원"
 },
 {
  "번호": 227,
  "Name": "동물병원",
  "PhoneNumber": "02-549-4505",
  "address": "서울특별시 강남구 논현동 59-5 진성빌딩",
  "Latitude": 37.5196337,
  "Longitude": 127.0290227,
  "BuildingName": "신사동물병원"
 },
 {
  "번호": 228,
  "Name": "동물병원",
  "PhoneNumber": "02-466-8215",
  "address": "서울특별시 성동구 성수동1가 718번지 트리마제",
  "Latitude": 37.5388236,
  "Longitude": 127.045046,
  "BuildingName": "달링동물병원"
 },
 {
  "번호": 229,
  "Name": "동물병원",
  "PhoneNumber": "02-2039-2575",
  "address": "서울특별시 송파구 석촌동 15 제우빌딩 2층 202호",
  "Latitude": 37.5028733,
  "Longitude": 127.0989868,
  "BuildingName": "닥터캣 고양이병원"
 },
 {
  "번호": 230,
  "Name": "동물병원",
  "address": "서울특별시 중랑구 상봉동 137-16번지",
  "Latitude": 37.5924376,
  "Longitude": 127.0726366,
  "BuildingName": "중랑차 동물병원"
 },
 {
  "번호": 231,
  "Name": "동물병원",
  "PhoneNumber": "02-2676-7582",
  "address": "서울특별시 영등포구 양평동1가 28-3",
  "Latitude": 37.5223389,
  "Longitude": 126.8911691,
  "BuildingName": "24시 수 동물메디컬센터"
 },
 {
  "번호": 232,
  "Name": "동물병원",
  "PhoneNumber": "02-2242-7510",
  "address": "서울특별시 동대문구 답십리동 490-57번지",
  "Latitude": 37.5666198,
  "Longitude": 127.0559077,
  "BuildingName": "하이유 동물병원"
 },
 {
  "번호": 233,
  "Name": "동물병원",
  "PhoneNumber": 25366469,
  "address": "서울특별시 서초구 잠원동 58-24 뉴타운",
  "Latitude": 37.5085147,
  "Longitude": 127.0116623,
  "BuildingName": "해뜨는 동물병원 해질녘책방"
 },
 {
  "번호": 234,
  "Name": "동물병원",
  "PhoneNumber": "02-373-7500",
  "address": "서울특별시 서대문구 북가좌동 300-2",
  "Latitude": 37.5796412,
  "Longitude": 126.9114362,
  "BuildingName": "위드 동물병원"
 },
 {
  "번호": 235,
  "Name": "동물병원",
  "PhoneNumber": "02-454-8275",
  "address": "서울특별시 강남구 삼성동 10-25 대호빌딩 1층",
  "Latitude": 37.5146018,
  "Longitude": 127.0437307,
  "BuildingName": "혜민동물병원"
 },
 {
  "번호": 236,
  "Name": "동물병원",
  "PhoneNumber": "02-797-1275",
  "address": "서울특별시 용산구 한강로3가 63-389 용산시티파크1단지 101동 101호",
  "Latitude": 37.5250734,
  "Longitude": 126.9689153,
  "BuildingName": "워너비동물병원 용산점"
 },
 {
  "번호": 237,
  "Name": "동물병원",
  "PhoneNumber": "02-6951-4327",
  "address": "서울특별시 강남구 압구정동 455번지 상가 제2층 203호",
  "Latitude": 37.5319756,
  "Longitude": 127.0285632,
  "BuildingName": "봄사랑 동물병원"
 },
 {
  "번호": 238,
  "Name": "동물병원",
  "PhoneNumber": "02-905-7588",
  "address": "서울특별시 노원구 월계동 292-59번지 상천빌딩1층",
  "Latitude": 37.6291493,
  "Longitude": 127.057846,
  "BuildingName": "닥터스종합동물병원"
 },
 {
  "번호": 239,
  "Name": "동물병원",
  "PhoneNumber": "02-523-0275",
  "address": "서울특별시 서초구 방배동 951-3 대진빌딩",
  "Latitude": 37.4854893,
  "Longitude": 126.9850822,
  "BuildingName": "심바동물병원"
 },
 {
  "번호": 240,
  "Name": "동물병원",
  "PhoneNumber": "02-484-7975",
  "address": "서울특별시 강동구 천호동 25-6 조희빌딩",
  "Latitude": 37.5492721,
  "Longitude": 127.143436,
  "BuildingName": "동물병원 공감"
 },
 {
  "번호": 241,
  "Name": "동물병원",
  "PhoneNumber": "02-3144-7582",
  "address": "서울특별시 서대문구 연희동 135-9번지 내풍빌딩",
  "Latitude": 37.5678116,
  "Longitude": 126.9319184,
  "BuildingName": "에이플러스 동물병원"
 },
 {
  "번호": 242,
  "Name": "동물병원",
  "PhoneNumber": "02-464-7582",
  "address": "서울특별시 광진구 중곡동 162-8",
  "Latitude": 37.5608297,
  "Longitude": 127.0812361,
  "BuildingName": "스마트동물병원군자점"
 },
 {
  "번호": 243,
  "Name": "동물병원",
  "PhoneNumber": "02-431-7575",
  "address": "서울특별시 송파구 장지동 881-5 에스비트램스퀘어 203,204호",
  "Latitude": 37.4812143,
  "Longitude": 127.1428973,
  "BuildingName": "위례S동물의료센터"
 },
 {
  "번호": 244,
  "Name": "동물병원",
  "PhoneNumber": 236660204,
  "address": "서울특별시 구로구 고척동 343 고척 월드메르디앙 109동 5호",
  "Latitude": 37.5029448,
  "Longitude": 126.8631474,
  "BuildingName": "드림동물병원"
 },
 {
  "번호": 245,
  "Name": "동물병원",
  "PhoneNumber": "802-2811",
  "address": "서울특별시 금천구 시흥동 904-6 서우빌딩",
  "Latitude": 37.4494089,
  "Longitude": 126.9030357,
  "BuildingName": "더조은 동물의료센터"
 },
 {
  "번호": 246,
  "Name": "동물병원",
  "PhoneNumber": "537-7412",
  "address": "서울특별시 서초구 반포동 18-3번지 래미안퍼스티지 중심상가 143호",
  "Latitude": 37.5044951,
  "Longitude": 127.0007548,
  "BuildingName": "신세계 동물병원"
 },
 {
  "번호": 247,
  "Name": "동물병원",
  "PhoneNumber": "02-949-0975",
  "address": "서울특별시 노원구 월계동 333-1번지 월계이마트",
  "Latitude": 37.626501,
  "Longitude": 127.061849,
  "BuildingName": "웰니스 동물병원"
 },
 {
  "번호": 248,
  "Name": "동물병원",
  "PhoneNumber": "3662-8661",
  "address": "서울특별시 강서구 염창동 265-23번지 9,10호",
  "Latitude": 37.5513319,
  "Longitude": 126.8710831,
  "BuildingName": "서서울동물병원"
 },
 {
  "번호": 249,
  "Name": "동물병원",
  "PhoneNumber": "02-420-0975",
  "address": "서울특별시 송파구 잠실동 242-4 리치빌딩 1층",
  "Latitude": 37.5076557,
  "Longitude": 127.0888518,
  "BuildingName": "신천동물병원"
 },
 {
  "번호": 250,
  "Name": "동물병원",
  "PhoneNumber": "02-403-7582",
  "address": "서울특별시 송파구 문정동 624 송파아이파크 1동 E204호",
  "Latitude": 37.4798679,
  "Longitude": 127.1217483,
  "BuildingName": "송파데일리동물병원"
 },
 {
  "번호": 251,
  "Name": "동물병원",
  "PhoneNumber": "02-883-0007",
  "address": "서울특별시 관악구 봉천동 622-74번지",
  "Latitude": 37.4870631,
  "Longitude": 126.9447231,
  "BuildingName": "더블유동물병원"
 },
 {
  "번호": 252,
  "Name": "동물병원",
  "PhoneNumber": "997-0075",
  "address": "서울특별시 도봉구 쌍문동 45-8",
  "Latitude": 37.6579363,
  "Longitude": 127.0364245,
  "BuildingName": "태일동물치과병원"
 },
 {
  "번호": 253,
  "Name": "동물병원",
  "PhoneNumber": "02-3280-8275",
  "address": "서울특별시 동작구 상도동 27-12 성은빌딩",
  "Latitude": 37.5000143,
  "Longitude": 126.9286707,
  "BuildingName": "유케어종합동물병원"
 },
 {
  "번호": 254,
  "Name": "동물병원",
  "PhoneNumber": "2644-5975",
  "address": "서울특별시 강서구 화곡동 796-1번지 피앤와이빌딩 3호",
  "Latitude": 37.5319785,
  "Longitude": 126.861805,
  "BuildingName": "하트온동물병원"
 },
 {
  "번호": 255,
  "Name": "동물병원",
  "PhoneNumber": "02-446-8175",
  "address": "서울특별시 광진구 구의동 611 구의현대2단지아파트",
  "Latitude": 37.5387348,
  "Longitude": 127.0961255,
  "BuildingName": "광진24시필동물병원"
 },
 {
  "번호": 256,
  "Name": "동물병원",
  "PhoneNumber": "02-569-7582",
  "address": "서울특별시 강남구 역삼동 766-20 역삼프라자",
  "Latitude": 37.4955787,
  "Longitude": 127.0498106,
  "BuildingName": "24시OK동물병원"
 },
 {
  "번호": 257,
  "Name": "동물병원",
  "address": "서울특별시 종로구 홍파동 42-13 경희궁자이 2단지 상가동 2229호",
  "Latitude": 37.5704927,
  "Longitude": 126.963397,
  "BuildingName": "경희궁 바른 동물병원"
 },
 {
  "번호": 258,
  "Name": "동물병원",
  "PhoneNumber": "02-566-8211",
  "address": "서울특별시 강남구 대치동 909-5 1,2층",
  "Latitude": 37.5012739,
  "Longitude": 127.0536426,
  "BuildingName": "서울동물의료센터"
 },
 {
  "번호": 259,
  "Name": "동물병원",
  "PhoneNumber": "02-2212-7596",
  "address": "서울특별시 동대문구 장안동 330-2번지",
  "Latitude": 37.5725063,
  "Longitude": 127.0730558,
  "BuildingName": "현대종합동물병원"
 },
 {
  "번호": 260,
  "Name": "동물병원",
  "PhoneNumber": "954-6990",
  "address": "서울특별시 도봉구 도봉동 62-43번지 도봉투웨니퍼스트2단지",
  "Latitude": 37.6826104,
  "Longitude": 127.0475778,
  "BuildingName": "해봄동물병원"
 },
 {
  "번호": 261,
  "Name": "동물병원",
  "PhoneNumber": "02-2124-2832",
  "address": "서울특별시 마포구 상암동 1648 S-PLEX CENTER 지하1층",
  "Latitude": 37.5756374,
  "Longitude": 126.890042,
  "BuildingName": "서울동물복지지원센터 동물병원"
 },
 {
  "번호": 263,
  "Name": "동물병원",
  "PhoneNumber": "02-583-7582",
  "address": "서울특별시 강남구 삼성동 160-21번지 3층",
  "Latitude": 37.5137329999999,
  "Longitude": 127.0618806,
  "BuildingName": "아크리스동물의료센터"
 },
 {
  "번호": 264,
  "Name": "동물병원",
  "PhoneNumber": "02-792-8275",
  "address": "서울특별시 용산구 한남동 29-6 아이리스프라자 지상3층",
  "Latitude": 37.5346908,
  "Longitude": 127.0096041,
  "BuildingName": "더힐동물의료센터"
 },
 {
  "번호": 265,
  "Name": "동물병원",
  "PhoneNumber": 24550975,
  "BuildingName": "연두동물병원"
 },
 {
  "번호": 266,
  "Name": "동물병원",
  "PhoneNumber": "02-927-7878",
  "address": "서울특별시 성북구 동소문동6가 237번지",
  "Latitude": 37.5953561,
  "Longitude": 127.0157568,
  "BuildingName": "로이동물병원"
 },
 {
  "번호": 267,
  "Name": "동물병원",
  "PhoneNumber": "2065-7582",
  "address": "서울특별시 강서구 화곡동 371-32번지",
  "Latitude": 37.5369775,
  "Longitude": 126.8379227,
  "BuildingName": "올스타동물의료센터"
 },
 {
  "번호": 268,
  "Name": "동물병원",
  "PhoneNumber": "02-373-5555",
  "address": "서울특별시 은평구 증산동 202-27번지 지하1층",
  "Latitude": 37.5869368,
  "Longitude": 126.908564,
  "BuildingName": "가든펫동물병원"
 },
 {
  "번호": 269,
  "Name": "동물병원",
  "PhoneNumber": "02-577-7582",
  "address": "서울특별시 강남구 개포동 1259-4번지 101호",
  "Latitude": 37.4791662,
  "Longitude": 127.0491313,
  "BuildingName": "나은동물병원"
 },
 {
  "번호": 270,
  "Name": "동물병원",
  "PhoneNumber": "02-6953-8275",
  "address": "서울특별시 은평구 진관동 83번지 은평뉴타운우물골 205동 B104호",
  "Latitude": 37.6345633,
  "Longitude": 126.9275683,
  "BuildingName": "우리덕구동물병원"
 },
 {
  "번호": 271,
  "Name": "동물병원",
  "PhoneNumber": "02-2135-2225",
  "address": "서울특별시 마포구 공덕동 222-2 공덕 메디힐스 지하1층",
  "Latitude": 37.5489269,
  "Longitude": 126.9521662,
  "BuildingName": "날으는 동물병원"
 },
 {
  "번호": 272,
  "Name": "동물병원",
  "PhoneNumber": "02-562-7582",
  "address": "서울특별시 강남구 역삼동 727-8 1층",
  "Latitude": 37.4974247,
  "Longitude": 127.0389213,
  "BuildingName": "24시SNC동물메디컬센터"
 },
 {
  "번호": 273,
  "Name": "동물병원",
  "PhoneNumber": "02-419-7571",
  "address": "서울특별시 송파구 송파동 135-2",
  "Latitude": 37.509254,
  "Longitude": 127.111872,
  "BuildingName": "송파원동물병원"
 },
 {
  "번호": 274,
  "Name": "동물병원",
  "PhoneNumber": "02-426-2775",
  "address": "서울특별시 강동구 암사동 414-18번지",
  "Latitude": 37.5553105,
  "Longitude": 127.1403856,
  "BuildingName": "돌봄동물병원"
 },
 {
  "번호": 275,
  "Name": "동물병원",
  "PhoneNumber": "02-2213-8875",
  "address": "서울특별시 동대문구 답십리동 1003-2번지 세기프라자",
  "Latitude": 37.5723113,
  "Longitude": 127.0555634,
  "BuildingName": "더케이동물병원"
 },
 {
  "번호": 276,
  "Name": "동물병원",
  "PhoneNumber": "02-472-7579",
  "address": "서울특별시 강동구 성내동 244-2",
  "Latitude": 37.5343701,
  "Longitude": 127.1359844,
  "BuildingName": "강동24시 SKY 동물의료센터"
 },
 {
  "번호": 277,
  "Name": "동물병원",
  "PhoneNumber": "02-441-5515",
  "address": "서울특별시 강동구 고덕동 688번지 래미안힐스테이트고덕 상가 2층 212,213호",
  "Latitude": 37.558949,
  "Longitude": 127.1470826,
  "BuildingName": "고덕 고래힐동물병원"
 },
 {
  "번호": 278,
  "Name": "동물병원",
  "PhoneNumber": "906-7575",
  "address": "서울특별시 도봉구 창동 650-11번지",
  "Latitude": 37.6453593,
  "Longitude": 127.0337003,
  "BuildingName": "트윈스동물병원"
 },
 {
  "번호": 279,
  "Name": "동물병원",
  "PhoneNumber": "02-540-6303",
  "address": "서울특별시 강남구 신사동 660-7번지 1층,2층",
  "Latitude": 37.5282051,
  "Longitude": 127.0378221,
  "BuildingName": "압구정메이트동물병원"
 },
 {
  "번호": 280,
  "Name": "동물병원",
  "PhoneNumber": "02-336-0073",
  "address": "서울특별시 마포구 망원동 477-3",
  "Latitude": 37.560772,
  "Longitude": 126.9054366,
  "BuildingName": "이황 동물병원"
 },
 {
  "번호": 281,
  "Name": "동물병원",
  "PhoneNumber": 8464597,
  "address": "서울특별시 양천구 목동 507-2 덕수프라자",
  "Latitude": 37.5468723,
  "Longitude": 126.8713762,
  "BuildingName": "두암동물병원"
 },
 {
  "번호": 282,
  "Name": "동물병원",
  "PhoneNumber": "02-375-1963",
  "address": "서울특별시 마포구 성산동 200-24번지",
  "Latitude": 37.5670145,
  "Longitude": 126.9097946,
  "BuildingName": "와우 동물병원"
 },
 {
  "번호": 283,
  "Name": "동물병원",
  "PhoneNumber": "02-903-7582",
  "address": "서울특별시 강북구 수유동 39-10 1, 2층",
  "Latitude": 37.6414521,
  "Longitude": 127.0222657,
  "BuildingName": "24시 수유 바른펫 동물의료센터"
 },
 {
  "번호": 284,
  "Name": "동물병원",
  "PhoneNumber": "02-848-7975",
  "address": "서울특별시 영등포구 신길동 2039 상가동 C119호",
  "Latitude": 37.5060633,
  "Longitude": 126.9136167,
  "BuildingName": "신길 온동물병원"
 },
 {
  "번호": 285,
  "Name": "동물병원",
  "PhoneNumber": "02-305-7505",
  "address": "서울특별시 서대문구 남가좌동 385번지 DMC파크뷰자이",
  "Latitude": 37.5722576,
  "Longitude": 126.9178374,
  "BuildingName": "강앤정 동물병원"
 },
 {
  "번호": 286,
  "Name": "동물병원",
  "PhoneNumber": "02-6215-3416",
  "address": "서울특별시 중랑구 면목동 146-75",
  "Latitude": 37.5875118,
  "Longitude": 127.0802442,
  "BuildingName": "로얄동물암치료센터"
 },
 {
  "번호": 287,
  "Name": "동물병원",
  "PhoneNumber": "02-2601-8875",
  "address": "서울특별시 양천구 신정동 1182-11",
  "Latitude": 37.5177284,
  "Longitude": 126.8536262,
  "BuildingName": "24시 서울 탑 동물병원"
 },
 {
  "번호": 288,
  "Name": "동물병원",
  "PhoneNumber": "02-555-6835",
  "address": "서울특별시 강남구 대치동 903-12번지 한상빌딩",
  "Latitude": 37.502794,
  "Longitude": 127.0573247,
  "BuildingName": "원동물병원"
 },
 {
  "번호": 289,
  "Name": "동물병원",
  "PhoneNumber": "02-719-7052",
  "address": "서울특별시 마포구 아현동 331-2",
  "Latitude": 37.5570916,
  "Longitude": 126.9542989,
  "BuildingName": "소망동물병원"
 },
 {
  "번호": 290,
  "Name": "동물병원",
  "PhoneNumber": "02-808-2475",
  "address": "서울특별시 금천구 시흥동 999-1",
  "Latitude": 37.4561179,
  "Longitude": 126.8995349,
  "BuildingName": "금천 24시 K동물의료센터"
 },
 {
  "번호": 291,
  "Name": "동물병원",
  "PhoneNumber": "02-2024-1253",
  "BuildingName": "쿨펫동물병원"
 },
 {
  "번호": 292,
  "Name": "동물병원",
  "PhoneNumber": "02-855-8575",
  "address": "서울특별시 금천구 독산동 145-13",
  "Latitude": 37.4767457,
  "Longitude": 126.8982881,
  "BuildingName": "24시 글로리 동물병원"
 },
 {
  "번호": 293,
  "Name": "동물병원",
  "PhoneNumber": "02-965-0075",
  "address": "서울특별시 동대문구 이문동 292-10번지 이문동 웰츠타워",
  "Latitude": 37.598488,
  "Longitude": 127.0618949,
  "BuildingName": "바론동물병원"
 },
 {
  "번호": 294,
  "Name": "동물병원",
  "PhoneNumber": "02-521-5775",
  "address": "서울특별시 동작구 사당동 248-5번지",
  "Latitude": 37.4849286,
  "Longitude": 126.9698937,
  "BuildingName": "나을동물병원"
 },
 {
  "번호": 295,
  "Name": "동물병원",
  "PhoneNumber": "2642-1239",
  "address": "서울특별시 양천구 신정동 329 목동신시가지아파트14단지 B상가 117,호",
  "Latitude": 37.5161905,
  "Longitude": 126.8703376,
  "BuildingName": "페토브 동물병원"
 },
 {
  "번호": 296,
  "Name": "동물병원",
  "PhoneNumber": "02-356-9475",
  "address": "서울특별시 은평구 불광동 643 북한산 힐스테이트7차, 상가동 지하2층 128호, 지하1층 228호",
  "Latitude": 37.6165312,
  "Longitude": 126.9266862,
  "BuildingName": "담은동물병원"
 },
 {
  "번호": 297,
  "Name": "동물병원",
  "PhoneNumber": "02-749-7588",
  "address": "서울특별시 용산구 이촌동 300-23번지 한강맨션 11동 102호",
  "Latitude": 37.5182907,
  "Longitude": 126.9759433,
  "BuildingName": "베이동물병원"
 },
 {
  "번호": 298,
  "Name": "동물병원",
  "PhoneNumber": "2661-7515",
  "address": "서울특별시 강서구 마곡동 747 1014동 103호",
  "Latitude": 37.5595407,
  "Longitude": 126.8193505,
  "BuildingName": "마곡나무 동물병원"
 },
 {
  "번호": 299,
  "Name": "동물병원",
  "PhoneNumber": "02-375-7575",
  "address": "서울특별시 마포구 성산동 94-4 성미빌딩",
  "Latitude": 37.5659781,
  "Longitude": 126.9108372,
  "BuildingName": "라온동물병원"
 },
 {
  "번호": 300,
  "Name": "동물병원",
  "PhoneNumber": "02-2635-2475",
  "address": "서울특별시 영등포구 당산동5가 11-30 1,2층",
  "Latitude": 37.5320913,
  "Longitude": 126.9050405,
  "BuildingName": "이든동물의료센터"
 },
 {
  "번호": 301,
  "Name": "동물병원",
  "PhoneNumber": "02-783-7580",
  "address": "서울특별시 영등포구 여의도동 53-3번지 미라클빌딩 4층",
  "Latitude": 37.5187228,
  "Longitude": 126.9335595,
  "BuildingName": "여의도 동물병원"
 },
 {
  "번호": 302,
  "Name": "동물병원",
  "PhoneNumber": "02-335-7577",
  "address": "서울특별시 마포구 서교동 5-2번지",
  "Latitude": 37.5574003,
  "Longitude": 126.9092654,
  "BuildingName": "푸른숲 동물병원"
 },
 {
  "번호": 303,
  "Name": "동물병원",
  "PhoneNumber": "02-498-7588",
  "BuildingName": "파라곤동물병원"
 },
 {
  "번호": 304,
  "Name": "동물병원",
  "PhoneNumber": "02-2297-9300",
  "BuildingName": "바라봄동물병원"
 },
 {
  "번호": 305,
  "Name": "동물병원",
  "PhoneNumber": "02-2643-8204",
  "address": "서울특별시 양천구 신정동 1052-3",
  "Latitude": 37.5171874,
  "Longitude": 126.8546374,
  "BuildingName": "다온동물병원"
 },
 {
  "번호": 306,
  "Name": "동물병원",
  "PhoneNumber": "02-539-3339",
  "address": "서울특별시 강남구 대치동 316번지 1통2반 은마상가 1층 B120, B121 101동 801호",
  "Latitude": 37.4974176,
  "Longitude": 127.0653272,
  "BuildingName": "대치수동물병원"
 },
 {
  "번호": 307,
  "Name": "동물병원",
  "PhoneNumber": "02-549-0275",
  "address": "서울특별시 강남구 신사동 587-13 1층 지하1층",
  "Latitude": 37.5207257,
  "Longitude": 127.0299801,
  "BuildingName": "24시 스마트동물병원(신사본원)"
 },
 {
  "번호": 308,
  "Name": "동물병원",
  "PhoneNumber": "02-484-4063",
  "address": "서울특별시 강동구 성내동 322-7번지 1층",
  "Latitude": 37.5320962,
  "Longitude": 127.1214666,
  "BuildingName": "닥터표동물병원"
 },
 {
  "번호": 309,
  "Name": "동물병원",
  "PhoneNumber": "02-3152-0075",
  "address": "서울특별시 은평구 응암동 244-212번지",
  "Latitude": 37.5882137,
  "Longitude": 126.9224591,
  "BuildingName": "참좋은동물병원"
 },
 {
  "번호": 310,
  "Name": "동물병원",
  "PhoneNumber": "02-2282-7501",
  "address": "서울특별시 성동구 옥수동 528번지 이편한세상옥수파크힐스",
  "Latitude": 37.5438285,
  "Longitude": 127.013956,
  "BuildingName": "스테이동물병원"
 },
 {
  "번호": 311,
  "Name": "동물병원",
  "PhoneNumber": "02-529-7587",
  "address": "서울특별시 강남구 도곡동 467-7 아카데미스위트 에이동 104, 202호",
  "Latitude": 37.4889623,
  "Longitude": 127.0519645,
  "BuildingName": "그레이동물병원 강남점"
 },
 {
  "번호": 312,
  "Name": "동물병원",
  "PhoneNumber": "02-793-0075",
  "address": "서울특별시 용산구 이촌동 302-88 지상1층 101호",
  "Latitude": 37.5200071,
  "Longitude": 126.9699075,
  "BuildingName": "24시 시유동물메디컬센터"
 },
 {
  "번호": 313,
  "Name": "동물병원",
  "PhoneNumber": "912-6555",
  "address": "서울특별시 성북구 하월곡동 62-4번지",
  "Latitude": 37.6042178999999,
  "Longitude": 127.0377433,
  "BuildingName": "포유동물병원"
 },
 {
  "번호": 314,
  "Name": "동물병원",
  "PhoneNumber": "02-468-7975",
  "address": "서울특별시 성동구 성수동1가 22-28번지 1층",
  "Latitude": 37.5436309,
  "Longitude": 127.0491999,
  "BuildingName": "포레동물병원"
 },
 {
  "번호": 315,
  "Name": "동물병원",
  "PhoneNumber": "02-835-7975",
  "address": "서울특별시 영등포구 신길동 162-10번지",
  "Latitude": 37.5121524,
  "Longitude": 126.9159639,
  "BuildingName": "아람동물병원"
 },
 {
  "번호": 316,
  "Name": "동물병원",
  "PhoneNumber": "02-428-1661",
  "address": "서울특별시 강동구 암사동 503-23번지",
  "Latitude": 37.5514792,
  "Longitude": 127.1277197,
  "BuildingName": "올바른동물병원"
 },
 {
  "번호": 317,
  "Name": "동물병원",
  "PhoneNumber": "02-352-7275",
  "address": "서울특별시 은평구 대조동 14-27 2층",
  "Latitude": 37.6102059,
  "Longitude": 126.9292166,
  "BuildingName": "개와냥이동물병원"
 },
 {
  "번호": 318,
  "Name": "동물병원",
  "PhoneNumber": 222810049,
  "address": "서울특별시 성동구 금호동2가 1217번지 래미안하이리버 상가동 비201호",
  "Latitude": 37.551292,
  "Longitude": 127.0245415,
  "BuildingName": "금호동물병원"
 },
 {
  "번호": 319,
  "Name": "동물병원",
  "PhoneNumber": "02-792-2561",
  "address": "서울특별시 용산구 용산동5가 24번지 파크타워 지하1층 비21호",
  "Latitude": 37.5242741,
  "Longitude": 126.9706849,
  "BuildingName": "바다동물병원(Bada Animal Hospital)"
 },
 {
  "번호": 320,
  "Name": "동물병원",
  "PhoneNumber": "02-941-5575",
  "address": "서울특별시 성북구 길음동 1285번지 길음뉴타운7단지 두산위브상가 103호, 104호",
  "Latitude": 37.603245,
  "Longitude": 127.024959,
  "BuildingName": "스마트동물병원 성북길음점"
 },
 {
  "번호": 321,
  "Name": "동물병원",
  "PhoneNumber": "02-547-7588",
  "address": "서울특별시 강남구 신사동 617 성수빌딩",
  "Latitude": 37.5286515,
  "Longitude": 127.0325486,
  "BuildingName": "압구정동물의료센터"
 },
 {
  "번호": 322,
  "Name": "동물병원",
  "PhoneNumber": "02-588-7511",
  "address": "서울특별시 서초구 서초동 1624-1 영빌딩",
  "Latitude": 37.4881006,
  "Longitude": 127.0149404,
  "BuildingName": "서초M동물의료센터"
 },
 {
  "번호": 323,
  "Name": "동물병원",
  "PhoneNumber": "02-443-8898",
  "address": "서울특별시 송파구 거여동 290-3 우토 파크빌딩",
  "Latitude": 37.4899831,
  "Longitude": 127.1447566,
  "BuildingName": "마루동물병원"
 },
 {
  "번호": 324,
  "Name": "동물병원",
  "PhoneNumber": "02-459-5955",
  "address": "서울특별시 강남구 수서동 595번지 제이스프라자 109호",
  "Latitude": 37.4840818,
  "Longitude": 127.0938999,
  "BuildingName": "수서동물병원"
 },
 {
  "번호": 325,
  "Name": "동물병원",
  "PhoneNumber": "02-2061-5277",
  "address": "서울특별시 양천구 신정동 1028-4번지",
  "Latitude": 37.521324,
  "Longitude": 126.8564648,
  "BuildingName": "밀리언동물병원"
 },
 {
  "번호": 326,
  "Name": "동물병원",
  "PhoneNumber": "02-6203-7588",
  "address": "서울특별시 강남구 역삼동 689-2 PRODIGY TOWER",
  "Latitude": 37.5066962,
  "Longitude": 127.0408665,
  "BuildingName": "서울동물심장병원"
 },
 {
  "번호": 327,
  "Name": "동물병원",
  "PhoneNumber": "02-525-3102",
  "address": "서울특별시 서초구 방배동 442-3 대광빌딩 1,2층",
  "Latitude": 37.4796737,
  "Longitude": 126.9821564,
  "BuildingName": "VIP동물의료센터 서초동작점"
 },
 {
  "번호": 328,
  "Name": "동물병원",
  "PhoneNumber": 28071616,
  "address": "서울특별시 금천구 독산동 1102-5번지",
  "Latitude": 37.4537945999999,
  "Longitude": 126.8903777,
  "BuildingName": "조아동물병원"
 },
 {
  "번호": 329,
  "Name": "동물병원",
  "PhoneNumber": "02-442-8287",
  "address": "서울특별시 강동구 암사동 462-3번지",
  "Latitude": 37.5540637,
  "Longitude": 127.1292334,
  "BuildingName": "마리스동물의료센터"
 },
 {
  "번호": 330,
  "Name": "동물병원",
  "PhoneNumber": "02-448-7588",
  "address": "서울특별시 송파구 문정동 57-3",
  "Latitude": 37.4841578,
  "Longitude": 127.1239622,
  "BuildingName": "송파스마일동물병원"
 },
 {
  "번호": 331,
  "Name": "동물병원",
  "PhoneNumber": "02-400-8575",
  "address": "서울특별시 송파구 문정동 85 어은회관",
  "Latitude": 37.4830755,
  "Longitude": 127.1279017,
  "BuildingName": "송파바로동물병원"
 },
 {
  "번호": 332,
  "Name": "동물병원",
  "PhoneNumber": "02-3661-8200",
  "address": "서울특별시 강서구 가양동 1480-5번지",
  "Latitude": 37.5626213,
  "Longitude": 126.8530147,
  "BuildingName": "고려종합동물병원"
 },
 {
  "번호": 333,
  "Name": "동물병원",
  "PhoneNumber": "02-476-3927",
  "address": "서울특별시 강동구 성내동 449-13번지",
  "Latitude": 37.5224537,
  "Longitude": 127.1336511,
  "BuildingName": "방주동물의료센터"
 },
 {
  "번호": 334,
  "Name": "동물병원",
  "address": "서울특별시 금천구 독산동 1023-14번지",
  "Latitude": 37.4670182,
  "Longitude": 126.9015072,
  "BuildingName": "독산온동물병원"
 },
 {
  "번호": 335,
  "Name": "동물병원",
  "PhoneNumber": "02-3664-0075",
  "address": "서울특별시 강서구 내발산동 646",
  "Latitude": 37.5581499,
  "Longitude": 126.8391132,
  "BuildingName": "우리아이동물메디컬센터"
 },
 {
  "번호": 336,
  "Name": "동물병원",
  "address": "서울특별시 강남구 청담동 125-12 4층",
  "Latitude": 37.5251555,
  "Longitude": 127.0526252,
  "BuildingName": "청담눈초롱안과동물병원"
 },
 {
  "번호": 337,
  "Name": "동물병원",
  "PhoneNumber": "02-949-7582",
  "address": "서울특별시 노원구 공릉동 90-1번지 해중빌딩 105호",
  "Latitude": 37.622143,
  "Longitude": 127.0863716,
  "BuildingName": "키움 동물병원"
 },
 {
  "번호": 338,
  "Name": "동물병원",
  "PhoneNumber": "02-2242-0175",
  "address": "서울특별시 동대문구 장안동 483",
  "Latitude": 37.5755126,
  "Longitude": 127.0676783,
  "BuildingName": "스마트동물병원"
 },
 {
  "번호": 339,
  "Name": "동물병원",
  "PhoneNumber": "02-494-7775",
  "address": "서울특별시 중랑구 면목동 17-31번지",
  "Latitude": 37.5899503,
  "Longitude": 127.0974043,
  "BuildingName": "보담동물병원"
 },
 {
  "번호": 340,
  "Name": "동물병원",
  "PhoneNumber": "02-952-7582",
  "address": "서울특별시 노원구 상계동 397-5번지",
  "Latitude": 37.6584605,
  "Longitude": 127.0657592,
  "BuildingName": "스마트동물병원"
 },
 {
  "번호": 341,
  "Name": "동물병원",
  "PhoneNumber": "02-887-1575",
  "address": "서울특별시 관악구 신림동 10-631",
  "Latitude": 37.4842117,
  "Longitude": 126.9368197,
  "BuildingName": "이로동물의료센터"
 },
 {
  "번호": 342,
  "Name": "동물병원",
  "PhoneNumber": "02-521-8181",
  "address": "서울특별시 서초구 서초동 1538-9 유민빌딩 1층",
  "Latitude": 37.4881363,
  "Longitude": 127.0090995,
  "BuildingName": "에이원동물병원"
 },
 {
  "번호": 343,
  "Name": "동물병원",
  "PhoneNumber": "468-6612",
  "address": "서울특별시 광진구 자양동 550-1",
  "Latitude": 37.5358139,
  "Longitude": 127.0683342,
  "BuildingName": "로얄 도그앤캣 메디컬센터"
 },
 {
  "번호": 344,
  "Name": "동물병원",
  "PhoneNumber": "02-468-7582",
  "address": "서울특별시 성동구 성수동2가 339-23번지",
  "Latitude": 37.5390481,
  "Longitude": 127.0546897,
  "BuildingName": "제인동물병원"
 },
 {
  "번호": 345,
  "Name": "동물병원",
  "PhoneNumber": "02-354-7544",
  "address": "서울특별시 은평구 불광동 104-94번지",
  "Latitude": 37.6237556,
  "Longitude": 126.9276983,
  "BuildingName": "둘레길동물병원"
 },
 {
  "번호": 346,
  "Name": "동물병원",
  "PhoneNumber": "02-571-8275",
  "address": "서울특별시 영등포구 영등포동 423-44 1층",
  "Latitude": 37.5156848,
  "Longitude": 126.9054135,
  "BuildingName": "경인동물의료센터"
 },
 {
  "번호": 347,
  "Name": "동물병원",
  "PhoneNumber": 267347500,
  "address": "서울특별시 구로구 구로동 650-4 SK허브수 B동 205호",
  "Latitude": 37.4958767,
  "Longitude": 126.8729117,
  "BuildingName": "허브동물병원"
 },
 {
  "번호": 348,
  "Name": "동물병원",
  "PhoneNumber": "02-6402-0301",
  "address": "서울특별시 성동구 옥수동 561번지 래미안옥수리버젠 상가동 420호",
  "Latitude": 37.5438285,
  "Longitude": 127.013956,
  "BuildingName": "오석헌동물병원"
 },
 {
  "번호": 349,
  "Name": "동물병원",
  "PhoneNumber": "02-766-7577",
  "address": "서울특별시 성북구 성북동 155-15번지 1층",
  "Latitude": 37.5934575,
  "Longitude": 127.0017173,
  "BuildingName": "앙리동물병원"
 },
 {
  "번호": 350,
  "Name": "동물병원",
  "PhoneNumber": "722-8275",
  "address": "서울특별시 종로구 통인동 147-7 씨에스코즈빌",
  "Latitude": 37.5790422,
  "Longitude": 126.9711636,
  "BuildingName": "광화문동물병원"
 },
 {
  "번호": 351,
  "Name": "동물병원",
  "PhoneNumber": "02-2232-7975",
  "address": "서울특별시 중구 황학동 2523 황학 아크로타워",
  "Latitude": 37.565869,
  "Longitude": 127.0215764,
  "BuildingName": "바른동물병원"
 },
 {
  "번호": 352,
  "Name": "동물병원",
  "PhoneNumber": "02-387-8275",
  "address": "서울특별시 은평구 진관동 82번지 은평뉴타운우물골아파트 두산위브 202동 B01호",
  "Latitude": 37.634608,
  "Longitude": 126.9263421,
  "BuildingName": "서울햇빛동물병원"
 },
 {
  "번호": 353,
  "Name": "동물병원",
  "PhoneNumber": "02-393-3588",
  "address": "서울특별시 마포구 아현동 424-14 영지빌딩",
  "Latitude": 37.550953,
  "Longitude": 126.9565276,
  "BuildingName": "24시 산들산들 동물병원"
 },
 {
  "번호": 354,
  "Name": "동물병원",
  "PhoneNumber": "573-7582",
  "address": "서울특별시 강남구 개포동 1229-11번지 동성빌딩1층",
  "Latitude": 37.4764431,
  "Longitude": 127.0463188,
  "BuildingName": "개포별빛동물병원"
 },
 {
  "번호": 355,
  "Name": "동물병원",
  "PhoneNumber": "02-715-0075",
  "address": "서울특별시 마포구 용강동 494-68",
  "Latitude": 37.5430332,
  "Longitude": 126.9378804,
  "BuildingName": "닥터 호오 동물병원"
 },
 {
  "번호": 356,
  "Name": "동물병원",
  "PhoneNumber": "02-305-5975",
  "address": "서울특별시 서대문구 남가좌동 369-10",
  "Latitude": 37.5756218,
  "Longitude": 126.9194417,
  "BuildingName": "오즈동물병원"
 },
 {
  "번호": 357,
  "Name": "동물병원",
  "PhoneNumber": "02-2611-5223",
  "address": "서울특별시 구로구 궁동 170-11 2층",
  "Latitude": 37.4962789,
  "Longitude": 126.8300231,
  "BuildingName": "365 마음동물병원"
 },
 {
  "번호": 358,
  "Name": "동물병원",
  "PhoneNumber": "3494-0075",
  "address": "서울특별시 도봉구 방학동 653-17 3층",
  "Latitude": 37.6690944,
  "Longitude": 127.0432012,
  "BuildingName": "방학동물외과센터"
 },
 {
  "번호": 359,
  "Name": "동물병원",
  "PhoneNumber": "02-6401-1512",
  "address": "서울특별시 송파구 문정동 620 송파 푸르지오시티",
  "Latitude": 37.4807632,
  "Longitude": 127.1212484,
  "BuildingName": "키다리동물병원"
 },
 {
  "번호": 360,
  "Name": "동물병원",
  "PhoneNumber": "02-305-4242",
  "address": "서울특별시 서대문구 남가좌동 124-1번지",
  "Latitude": 37.5708806,
  "Longitude": 126.9195039,
  "BuildingName": "어울림동물병원"
 },
 {
  "번호": 361,
  "Name": "동물병원",
  "PhoneNumber": "02-548-5466",
  "address": "서울특별시 강남구 청담동 44-15번지",
  "Latitude": 37.5182096,
  "Longitude": 127.0451825,
  "BuildingName": "굿모닝동물병원"
 },
 {
  "번호": 362,
  "Name": "동물병원",
  "PhoneNumber": "2694-8275",
  "address": "서울특별시 양천구 신정동 1320-2번지 신정프라자 203호",
  "Latitude": 37.5128983,
  "Longitude": 126.8325511,
  "BuildingName": "구름동물병원"
 },
 {
  "번호": 363,
  "Name": "동물병원",
  "PhoneNumber": "2282-3653",
  "address": "서울특별시 성동구 금호동4가 1338번지 10통4반 현대ESA아파트 910호",
  "Latitude": 37.545465,
  "Longitude": 127.0243047,
  "BuildingName": "펫365동물병원"
 },
 {
  "번호": 364,
  "Name": "동물병원",
  "PhoneNumber": "2644-8878",
  "address": "서울특별시 양천구 목동 903 목동신시가지아파트3단지 상가동 105호, 204호",
  "Latitude": 37.5341289,
  "Longitude": 126.8730672,
  "BuildingName": "파리스동물병원"
 },
 {
  "번호": 365,
  "Name": "동물병원",
  "PhoneNumber": "02-993-8266",
  "address": "서울특별시 강북구 수유동 340-2번지",
  "Latitude": 37.6433947,
  "Longitude": 127.0156996,
  "BuildingName": "초이스동물병원"
 },
 {
  "번호": 366,
  "Name": "동물병원",
  "PhoneNumber": "02-733-5060",
  "address": "서울특별시 서대문구 냉천동 195번지",
  "Latitude": 37.5690925,
  "Longitude": 126.9631967,
  "BuildingName": "독립문동물병원"
 },
 {
  "번호": 367,
  "Name": "동물병원",
  "PhoneNumber": "02-6925-4347",
  "address": "서울특별시 성북구 하월곡동 76-16",
  "Latitude": 37.6088066,
  "Longitude": 127.0357821,
  "BuildingName": "넬 동물의료센터"
 },
 {
  "번호": 368,
  "Name": "동물병원",
  "PhoneNumber": 26610530,
  "address": "서울특별시 강서구 공항동 28-10",
  "Latitude": 37.5615627,
  "Longitude": 126.8116969,
  "BuildingName": "송정동물메디컬센터"
 },
 {
  "번호": 369,
  "Name": "동물병원",
  "PhoneNumber": "02-473-0577",
  "address": "서울특별시 송파구 풍납동 257-95",
  "Latitude": 37.5302223,
  "Longitude": 127.113653,
  "BuildingName": "청담동물병원"
 },
 {
  "번호": 370,
  "Name": "동물병원",
  "PhoneNumber": "02-442-8875",
  "BuildingName": "스마트동물병원 강동암사점"
 },
 {
  "번호": 371,
  "Name": "동물병원",
  "PhoneNumber": "557-1555",
  "address": "서울특별시 강남구 역삼동 694-11 연안이씨빌딩 1층",
  "Latitude": 37.5068696,
  "Longitude": 127.0467575,
  "BuildingName": "선릉동물병원"
 },
 {
  "번호": 372,
  "Name": "동물병원",
  "PhoneNumber": "02-6242-8275",
  "address": "서울특별시 동대문구 전농동 322-31번지",
  "Latitude": 37.5737404,
  "Longitude": 127.0523332,
  "BuildingName": "아띠동물의료센터"
 },
 {
  "번호": 373,
  "Name": "동물병원",
  "PhoneNumber": "02-449-0075",
  "address": "서울특별시 송파구 거여동 20-5 정림빌딩 1층",
  "Latitude": 37.4945858,
  "Longitude": 127.1419259,
  "BuildingName": "온마음 동물메디컬센터"
 },
 {
  "번호": 374,
  "Name": "동물병원",
  "PhoneNumber": "02-984-7588",
  "address": "서울특별시 강북구 미아동 1357-6번지 미아프라자 106호",
  "Latitude": 37.6179491,
  "Longitude": 127.0189395,
  "BuildingName": "H 동물병원"
 },
 {
  "번호": 375,
  "Name": "동물병원",
  "PhoneNumber": "2663-8520",
  "BuildingName": "공항축산"
 },
 {
  "번호": 376,
  "Name": "동물병원",
  "PhoneNumber": "02-6227-8275",
  "BuildingName": "고덕24시 동물병원"
 },
 {
  "번호": 377,
  "Name": "동물병원",
  "PhoneNumber": "02-2135-9119",
  "address": "서울특별시 서초구 반포동 19-1 르본시티 2층",
  "Latitude": 37.5049039,
  "Longitude": 127.0022467,
  "BuildingName": "헬릭스동물메디컬센터"
 },
 {
  "번호": 378,
  "Name": "동물병원",
  "PhoneNumber": "3443-0275",
  "address": "서울특별시 강남구 신사동 528-3번지 덕산빌딩 203호",
  "Latitude": 37.5228465,
  "Longitude": 127.02055,
  "BuildingName": "압구정웰동물병원"
 },
 {
  "번호": 379,
  "Name": "동물병원",
  "PhoneNumber": "02-335-3333",
  "address": "서울특별시 마포구 성산동 17-23",
  "Latitude": 37.5620373,
  "Longitude": 126.915763,
  "BuildingName": "우리동생 동물병원"
 },
 {
  "번호": 380,
  "Name": "동물병원",
  "PhoneNumber": "02-979-8575",
  "address": "서울특별시 노원구 공릉동 576-22",
  "Latitude": 37.6215929,
  "Longitude": 127.0739618,
  "BuildingName": "메인동물병원"
 },
 {
  "번호": 381,
  "Name": "동물병원",
  "PhoneNumber": "02-484-5502",
  "address": "서울특별시 강동구 성내동 550-2번지 예원빌딩",
  "Latitude": 37.5289587,
  "Longitude": 127.1241786,
  "BuildingName": "가람동물병원"
 },
 {
  "번호": 382,
  "Name": "동물병원",
  "PhoneNumber": "02-576-1239",
  "address": "서울특별시 강남구 도곡동 545-6번지 1층,2층",
  "Latitude": 37.4913335,
  "Longitude": 127.0384772,
  "BuildingName": "강남다온동물병원"
 },
 {
  "번호": 383,
  "Name": "동물병원",
  "PhoneNumber": "02-445-5022",
  "address": "서울특별시 강남구 자곡동 658-105 강남힐스테이트에코",
  "Latitude": 37.4746926,
  "Longitude": 127.1050039,
  "BuildingName": "힐스타동물병원"
 },
 {
  "번호": 384,
  "Name": "동물병원",
  "PhoneNumber": "02-868-3931",
  "address": "서울특별시 관악구 신림동 526-9 1,2층",
  "Latitude": 37.4825972,
  "Longitude": 126.9170346,
  "BuildingName": "세계로동물의료센터"
 },
 {
  "번호": 385,
  "Name": "동물병원",
  "PhoneNumber": "02-2603-0075",
  "address": "서울특별시 강서구 화곡동 29통3반 한화 유로메트로 102동 1501호",
  "Latitude": 37.6025292,
  "Longitude": 126.7230169,
  "BuildingName": "미소동물의료센터"
 },
 {
  "번호": 386,
  "Name": "동물병원",
  "PhoneNumber": "02-2662-8111",
  "address": "서울특별시 강서구 마곡동 747 마곡엠밸리10단지 101호",
  "Latitude": 37.5595407,
  "Longitude": 126.8193505,
  "BuildingName": "24시 강서 젠틀리동물의료센터"
 },
 {
  "번호": 387,
  "Name": "동물병원",
  "PhoneNumber": "02-703-0075",
  "address": "서울특별시 용산구 원효로1가 133-3 리첸시아 용산 B동 113,114호",
  "Latitude": 37.5382753,
  "Longitude": 126.9673632,
  "BuildingName": "좋아서하는 동물병원"
 },
 {
  "번호": 388,
  "Name": "동물병원",
  "PhoneNumber": "02-508-7583",
  "address": "서울특별시 강남구 역삼동 771 101호,102호",
  "Latitude": 37.4970897,
  "Longitude": 127.0422033,
  "BuildingName": "드림동물병원"
 },
 {
  "번호": 389,
  "Name": "동물병원",
  "PhoneNumber": "549-7579",
  "address": "서울특별시 강남구 신사동 549-1 1층",
  "Latitude": 37.5243611,
  "Longitude": 127.0234522,
  "BuildingName": "가로수동물병원"
 },
 {
  "번호": 390,
  "Name": "동물병원",
  "PhoneNumber": "545-0075",
  "address": "서울특별시 강남구 신사동 630-23 2,3층",
  "Latitude": 37.5223796999999,
  "Longitude": 127.0351738,
  "BuildingName": "치료멍멍동물병원"
 },
 {
  "번호": 391,
  "Name": "동물병원",
  "PhoneNumber": "554-8875",
  "address": "서울특별시 강남구 역삼동 761-18번지",
  "Latitude": 37.4959548,
  "Longitude": 127.0466573,
  "BuildingName": "도곡종합동물병원"
 },
 {
  "번호": 392,
  "Name": "동물병원",
  "PhoneNumber": "445-7579",
  "address": "서울특별시 강남구 세곡동 581 강남리더스프라자 202-1호",
  "Latitude": 37.4657816,
  "Longitude": 127.1011914,
  "BuildingName": "마더스동물병원"
 },
 {
  "번호": 393,
  "Name": "동물병원",
  "PhoneNumber": "02-388-0275",
  "address": "서울특별시 은평구 역촌동 51-22번지",
  "Latitude": 37.6057243,
  "Longitude": 126.9111478,
  "BuildingName": "도담동물병원"
 },
 {
  "번호": 394,
  "Name": "동물병원",
  "PhoneNumber": "02-511-2842",
  "address": "서울특별시 강남구 청담동 1-18번지 2층",
  "Latitude": 37.5222645,
  "Longitude": 127.0396681,
  "BuildingName": "이비치 동물치과병원"
 },
 {
  "번호": 395,
  "Name": "동물병원",
  "PhoneNumber": "6959-8448",
  "address": "서울특별시 양천구 신월동 130-5번지 1층",
  "Latitude": 37.5302917,
  "Longitude": 126.8324195,
  "BuildingName": "서서울호수동물병원"
 },
 {
  "번호": 396,
  "Name": "동물병원",
  "PhoneNumber": "02-518-7500",
  "address": "서울특별시 강서구 등촌동 658-4",
  "Latitude": 37.5569656,
  "Longitude": 126.8521759,
  "BuildingName": "강서YD동물의료센터"
 },
 {
  "번호": 397,
  "Name": "동물병원",
  "PhoneNumber": "02-420-7580",
  "address": "서울특별시 송파구 잠실동 222-6 그린빌딩 1층",
  "Latitude": 37.5068778,
  "Longitude": 127.0799937,
  "BuildingName": "꿈이크는 동물병원"
 },
 {
  "번호": 398,
  "Name": "동물병원",
  "PhoneNumber": "2038-8253",
  "address": "서울특별시 광진구 중곡동 119-7",
  "Latitude": 37.5545525,
  "Longitude": 127.0870761,
  "BuildingName": "서울동물병원"
 },
 {
  "번호": 399,
  "Name": "동물병원",
  "PhoneNumber": "02-433-3387",
  "address": "서울특별시 중랑구 신내동 405-5번지",
  "Latitude": 37.6078176,
  "Longitude": 127.0983476,
  "BuildingName": "행복이 있는 동물병원"
 },
 {
  "번호": 400,
  "Name": "동물병원",
  "PhoneNumber": "2651-1855",
  "address": "서울특별시 양천구 목동 531-13 101호",
  "Latitude": 37.5444748,
  "Longitude": 126.8708956,
  "BuildingName": "대현동물병원"
 },
 {
  "번호": 401,
  "Name": "동물병원",
  "PhoneNumber": "6348-1982",
  "address": "서울특별시 양천구 목동 799-1번지 1층",
  "Latitude": 37.532837,
  "Longitude": 126.8684894,
  "BuildingName": "팜랜드동물병원"
 },
 {
  "번호": 402,
  "Name": "동물병원",
  "PhoneNumber": "3421-9075",
  "address": "서울특별시 중랑구 신내동 645번지 홈플러스 2층",
  "Latitude": 37.6157942,
  "Longitude": 127.0937634,
  "BuildingName": "도그플러스 동물병원"
 },
 {
  "번호": 403,
  "Name": "동물병원",
  "PhoneNumber": "02-574-7582",
  "address": "서울특별시 서초구 우면동 737 6단지상가 104호",
  "Latitude": 37.4614494,
  "Longitude": 127.0264908,
  "BuildingName": "서초힐스동물병원"
 },
 {
  "번호": 404,
  "Name": "동물병원",
  "PhoneNumber": "02-812-8275",
  "address": "서울특별시 동작구 상도동 22-151",
  "Latitude": 37.5051865,
  "Longitude": 126.9461419,
  "BuildingName": "지엔동물병원"
 },
 {
  "번호": 405,
  "Name": "동물병원",
  "PhoneNumber": "02-356-8353",
  "address": "서울특별시 은평구 불광동 554-1번지 1층",
  "Latitude": 37.6123773,
  "Longitude": 126.932109,
  "BuildingName": "다루동물병원"
 },
 {
  "번호": 406,
  "Name": "동물병원",
  "PhoneNumber": "02-424-7552",
  "address": "서울특별시 송파구 삼전동 22-6 1층",
  "Latitude": 37.506889,
  "Longitude": 127.0931686,
  "BuildingName": "행복한 우리아이 동물병원"
 },
 {
  "번호": 407,
  "Name": "동물병원",
  "PhoneNumber": "6053-6052",
  "address": "서울특별시 강남구 일원동 719번지 푸른마을아파트 상가동 102호",
  "Latitude": 37.484007,
  "Longitude": 127.0808459,
  "BuildingName": "수정동물병원"
 },
 {
  "번호": 408,
  "Name": "동물병원",
  "PhoneNumber": "2619-5102",
  "address": "서울특별시 구로구 개봉동 492 개봉푸르지오",
  "Latitude": 37.5004098,
  "Longitude": 126.848132,
  "BuildingName": "24시 명동물메디컬센터"
 },
 {
  "번호": 409,
  "Name": "동물병원",
  "PhoneNumber": "984-0075",
  "address": "서울특별시 성북구 길음동 1163",
  "Latitude": 37.6058394999999,
  "Longitude": 127.0243773,
  "BuildingName": "강북 24시 N 동물의료센터"
 },
 {
  "번호": 410,
  "Name": "동물병원",
  "PhoneNumber": "02-711-3375",
  "address": "서울특별시 마포구 염리동 164-4",
  "Latitude": 37.5446993,
  "Longitude": 126.9460445,
  "BuildingName": "굿모닝 동물병원"
 },
 {
  "번호": 411,
  "Name": "동물병원",
  "PhoneNumber": "02-307-3355",
  "address": "서울특별시 마포구 상암동 1655",
  "Latitude": 37.577686,
  "Longitude": 126.8886889,
  "BuildingName": "아프지말게 동물병원"
 },
 {
  "번호": 412,
  "Name": "동물병원",
  "PhoneNumber": "02-2233-6675",
  "address": "서울특별시 중구 신당동 44-17",
  "Latitude": 37.5605257,
  "Longitude": 127.0191101,
  "BuildingName": "신당 좋아요 동물병원"
 },
 {
  "번호": 413,
  "Name": "동물병원",
  "PhoneNumber": "02-431-0275",
  "address": "서울특별시 송파구 문정동 4-2 성해아파트상가 1층",
  "Latitude": 37.4908612,
  "Longitude": 127.1266754,
  "BuildingName": "문정탑동물병원"
 },
 {
  "번호": 414,
  "Name": "동물병원",
  "PhoneNumber": "02-6242-7500",
  "address": "서울특별시 동대문구 휘경동 267-84",
  "Latitude": 37.5894922,
  "Longitude": 127.0609605,
  "BuildingName": "하나동물병원"
 },
 {
  "번호": 415,
  "Name": "동물병원",
  "PhoneNumber": "02-969-7579",
  "address": "서울특별시 동대문구 회기동 62-8번지",
  "Latitude": 37.5903434,
  "Longitude": 127.0540494,
  "BuildingName": "봄봄동물병원"
 },
 {
  "번호": 416,
  "Name": "동물병원",
  "PhoneNumber": "02-477-1775",
  "BuildingName": "내품에동물병원"
 },
 {
  "번호": 417,
  "Name": "동물병원",
  "PhoneNumber": "02-969-7582",
  "address": "서울특별시 은평구 응암동 194-23",
  "Latitude": 37.5982018,
  "Longitude": 126.92509,
  "BuildingName": "스머프동물병원"
 },
 {
  "번호": 418,
  "Name": "동물병원",
  "PhoneNumber": "02-2203-7975",
  "address": "서울특별시 송파구 석촌동 2-9 금보 1층",
  "Latitude": 37.5049771,
  "Longitude": 127.097397,
  "BuildingName": "잠실베스트동물메디컬센터"
 },
 {
  "번호": 419,
  "Name": "동물병원",
  "PhoneNumber": "942-4883",
  "address": "서울특별시 성북구 길음동 1284번지 길음뉴타운 제상가비동 제지2층 25호",
  "Latitude": 37.6075609,
  "Longitude": 127.0179449,
  "BuildingName": "카카오 N 동물병원"
 },
 {
  "번호": 420,
  "Name": "동물병원",
  "PhoneNumber": "02-306-1259",
  "address": "서울특별시 마포구 상암동 115-11",
  "Latitude": 37.5763333,
  "Longitude": 126.8931357,
  "BuildingName": "동물병원 닥터K"
 },
 {
  "번호": 421,
  "Name": "동물병원",
  "PhoneNumber": "02-470-0030",
  "address": "서울특별시 강동구 둔촌동 517-4",
  "Latitude": 37.5288337,
  "Longitude": 127.1371945,
  "BuildingName": "Dr.주 동물병원"
 },
 {
  "번호": 422,
  "Name": "동물병원",
  "PhoneNumber": "02-875-7582",
  "address": "서울특별시 관악구 봉천동 1638-24번지",
  "Latitude": 37.4740796,
  "Longitude": 126.9663768,
  "BuildingName": "비타민동물병원"
 },
 {
  "번호": 423,
  "Name": "동물병원",
  "PhoneNumber": "02-6925-7021",
  "address": "서울특별시 강남구 청담동 47 노블레스타워",
  "Latitude": 37.5196492,
  "Longitude": 127.0491925,
  "BuildingName": "아이윌24시동물병원"
 },
 {
  "번호": 424,
  "Name": "동물병원",
  "PhoneNumber": "943-7582",
  "address": "서울특별시 성북구 하월곡동 46-73 코업스타클래스 1층",
  "Latitude": 37.6018094,
  "Longitude": 127.0403791,
  "BuildingName": "도담도담동물병원"
 },
 {
  "번호": 425,
  "Name": "동물병원",
  "PhoneNumber": "02-6227-7582",
  "address": "서울특별시 송파구 방이동 135-1 세림빌딩 1층",
  "Latitude": 37.5108775,
  "Longitude": 127.1189018,
  "BuildingName": "라임동물병원"
 },
 {
  "번호": 426,
  "Name": "동물병원",
  "PhoneNumber": "02-2692-8275",
  "address": "서울특별시 강서구 화곡동 27통5반 동양아파트 108동 2406호",
  "Latitude": 37.5466805999999,
  "Longitude": 126.84742,
  "BuildingName": "한마음동물병원"
 },
 {
  "번호": 427,
  "Name": "동물병원",
  "PhoneNumber": "02-322-1275",
  "address": "서울특별시 마포구 동교동 200-29",
  "Latitude": 37.5577074,
  "Longitude": 126.9225061,
  "BuildingName": "워너비 동물병원"
 },
 {
  "번호": 428,
  "Name": "동물병원",
  "PhoneNumber": "02-905-9119",
  "address": "서울특별시 도봉구 쌍문동 716-31번지",
  "Latitude": 37.6585924,
  "Longitude": 127.0403051,
  "BuildingName": "별난동물병원"
 },
 {
  "번호": 429,
  "Name": "동물병원",
  "PhoneNumber": "02-2060-7512",
  "address": "서울특별시 구로구 천왕동 279-3 골드프라자 201호",
  "Latitude": 37.4860308,
  "Longitude": 126.8385504,
  "BuildingName": "안정택동물병원"
 },
 {
  "번호": 430,
  "Name": "동물병원",
  "PhoneNumber": "02-2297-0075",
  "address": "서울특별시 성동구 하왕십리동 892-4",
  "Latitude": 37.5645661,
  "Longitude": 127.0278787,
  "BuildingName": "왕십리조은동물병원"
 },
 {
  "번호": 431,
  "Name": "동물병원",
  "PhoneNumber": "02-595-8875",
  "address": "서울특별시 서초구 방배동 758-2번지",
  "Latitude": 37.496639,
  "Longitude": 126.987735,
  "BuildingName": "한나동물병원"
 },
 {
  "번호": 432,
  "Name": "동물병원",
  "PhoneNumber": "2679-9997",
  "address": "서울특별시 영등포구 영등포동8가 72 미소로",
  "Latitude": 37.5285937,
  "Longitude": 126.9042,
  "BuildingName": "미소로동물병원"
 },
 {
  "번호": 433,
  "Name": "동물병원",
  "PhoneNumber": "02-987-7588",
  "address": "서울특별시 강북구 미아동 839-223번지 1층",
  "Latitude": 37.6203036,
  "Longitude": 127.0153474,
  "BuildingName": "스마트 동물병원"
 },
 {
  "번호": 434,
  "Name": "동물병원",
  "PhoneNumber": "02-915-5485",
  "address": "서울특별시 성북구 장위동 319번지 꿈의숲코오롱하늘채아파트 105동 112호",
  "Latitude": 37.619671,
  "Longitude": 127.0461571,
  "BuildingName": "꿈의숲동물병원"
 },
 {
  "번호": 435,
  "Name": "동물병원",
  "PhoneNumber": "02-414-7975",
  "address": "서울특별시 송파구 석촌동 174-12 청호빌딩 1층 2호",
  "Latitude": 37.5058012,
  "Longitude": 127.1061734,
  "BuildingName": "석촌동물병원"
 },
 {
  "번호": 436,
  "Name": "동물병원",
  "PhoneNumber": "02-2291-8275",
  "address": "서울특별시 성동구 마장동 791-9번지",
  "Latitude": 37.5656912,
  "Longitude": 127.0427762,
  "BuildingName": "기린동물병원"
 },
 {
  "번호": 437,
  "Name": "동물병원",
  "PhoneNumber": "02-2297-7570",
  "address": "서울특별시 성동구 금호동4가 800번지 금호동대우아파트 상가동 206호",
  "Latitude": 37.5459724,
  "Longitude": 127.0196834,
  "BuildingName": "바른동물병원"
 },
 {
  "번호": 438,
  "Name": "동물병원",
  "PhoneNumber": "853-7582",
  "address": "서울특별시 금천구 독산동 950-3",
  "Latitude": 37.47973,
  "Longitude": 126.9047274,
  "BuildingName": "우리동물메디컬센터"
 },
 {
  "번호": 439,
  "Name": "동물병원",
  "PhoneNumber": "2208-0329",
  "address": "서울특별시 중랑구 상봉동 99-10",
  "Latitude": 37.5972286,
  "Longitude": 127.087473,
  "BuildingName": "닥터 아이펫 동물병원"
 },
 {
  "번호": 440,
  "Name": "동물병원",
  "PhoneNumber": "02-790-7508",
  "address": "서울특별시 용산구 용산동2가 45-1번지 106호",
  "Latitude": 37.5431004,
  "Longitude": 126.9878326,
  "BuildingName": "퍼스동물병원"
 },
 {
  "번호": 441,
  "Name": "동물병원",
  "PhoneNumber": "464-7588",
  "address": "서울특별시 광진구 중곡동 166-6번지",
  "Latitude": 37.5654318,
  "Longitude": 127.0837958,
  "BuildingName": "드림펫 동물병원"
 },
 {
  "번호": 442,
  "Name": "동물병원",
  "PhoneNumber": "02-597-8985",
  "address": "서울특별시 관악구 남현동 612-51 남현프라자",
  "Latitude": 37.4714783,
  "Longitude": 126.9824131,
  "BuildingName": "아이러브펫동물병원"
 },
 {
  "번호": 443,
  "Name": "동물병원",
  "PhoneNumber": "581-5500",
  "address": "서울특별시 서초구 방배동 894-2 선빌딩 101호",
  "Latitude": 37.4881003,
  "Longitude": 126.9960533,
  "BuildingName": "동물제중원금손이 동물병원"
 },
 {
  "번호": 444,
  "Name": "동물병원",
  "PhoneNumber": "2038-9980",
  "address": "서울특별시 도봉구 창동 75-4",
  "Latitude": 37.6520414,
  "Longitude": 127.0465313,
  "BuildingName": "하비동물병원"
 },
 {
  "번호": 445,
  "Name": "동물병원",
  "PhoneNumber": "522-0222",
  "address": "서울특별시 서초구 서초동 1534-2번지 명성빌딩",
  "Latitude": 37.4845275,
  "Longitude": 127.0108068,
  "BuildingName": "아델 동물병원"
 },
 {
  "번호": 446,
  "Name": "동물병원",
  "PhoneNumber": "574-7533",
  "address": "서울특별시 강남구 청담동 86 5층",
  "Latitude": 37.5238647,
  "Longitude": 127.0396187,
  "BuildingName": "이안동물의학센터(청담점)"
 },
 {
  "번호": 447,
  "Name": "동물병원",
  "PhoneNumber": "02-844-7775",
  "address": "서울특별시 영등포구 신길동 100-12번지 중양빌딩",
  "Latitude": 37.5134014,
  "Longitude": 126.9185602,
  "BuildingName": "한가람동물의료센터"
 },
 {
  "번호": 448,
  "Name": "동물병원",
  "PhoneNumber": "02-6925-5475",
  "address": "서울특별시 송파구 신천동 11 장미c상가 내제2층 203호, 내제2층 204동 3호",
  "Latitude": 37.5200302,
  "Longitude": 127.1026164,
  "BuildingName": "킴리동물병원"
 },
 {
  "번호": 449,
  "Name": "동물병원",
  "PhoneNumber": "02-3280-7975",
  "address": "서울특별시 동작구 대방동 401-21",
  "Latitude": 37.4997155,
  "Longitude": 126.9222525,
  "BuildingName": "보라매웰종합동물병원"
 },
 {
  "번호": 450,
  "Name": "동물병원",
  "PhoneNumber": "2643-7579",
  "address": "서울특별시 양천구 목동 603-2번지 대우마이빌 102호",
  "Latitude": 37.5494794,
  "Longitude": 126.8668975,
  "BuildingName": "오라고동물병원"
 },
 {
  "번호": 451,
  "Name": "동물병원",
  "PhoneNumber": "919-0075",
  "address": "서울특별시 노원구 상계동 318-2 (주)노원24시동물의료센터",
  "Latitude": 37.6531769,
  "Longitude": 127.0681256,
  "BuildingName": "노원N동물의료센터"
 },
 {
  "번호": 452,
  "Name": "동물병원",
  "PhoneNumber": "02-701-0705",
  "address": "서울특별시 마포구 공덕동 256-13 제일빌딩",
  "Latitude": 37.5446204,
  "Longitude": 126.9526393,
  "BuildingName": "공덕 건강한 동물병원"
 },
 {
  "번호": 453,
  "Name": "동물병원",
  "PhoneNumber": "456-0975",
  "address": "서울특별시 광진구 자양동 606-27번지",
  "Latitude": 37.5317932,
  "Longitude": 127.0793493,
  "BuildingName": "자양동물병원"
 },
 {
  "번호": 454,
  "Name": "동물병원",
  "PhoneNumber": "02-338-2475",
  "address": "서울특별시 마포구 서교동 494",
  "Latitude": 37.5507977,
  "Longitude": 126.9167221,
  "BuildingName": "아이엠 동물병원"
 },
 {
  "번호": 455,
  "Name": "동물병원",
  "PhoneNumber": "02-2249-7600",
  "address": "서울특별시 동대문구 장안동 140-8",
  "Latitude": 37.5728623,
  "Longitude": 127.0677034,
  "BuildingName": "페트로동물의료원"
 },
 {
  "번호": 456,
  "Name": "동물병원",
  "PhoneNumber": "02-888-0976",
  "address": "서울특별시 관악구 봉천동 1656-22",
  "Latitude": 37.4754853,
  "Longitude": 126.9668447,
  "BuildingName": "나눔 양한방 동물병원"
 },
 {
  "번호": 457,
  "Name": "동물병원",
  "PhoneNumber": "02-2215-7522",
  "address": "서울특별시 동대문구 장안동 376-3",
  "Latitude": 37.5664068,
  "Longitude": 127.0675685,
  "BuildingName": "VIP동물의료센터"
 },
 {
  "번호": 458,
  "Name": "동물병원",
  "PhoneNumber": "02-712-8875",
  "address": "서울특별시 마포구 도화동 153",
  "Latitude": 37.5378253,
  "Longitude": 126.9472464,
  "BuildingName": "도화동물병원"
 },
 {
  "번호": 459,
  "Name": "동물병원",
  "PhoneNumber": "02-418-0724",
  "address": "서울특별시 송파구 잠실동 175-6 J타워 202호",
  "Latitude": 37.5115663,
  "Longitude": 127.0790214,
  "BuildingName": "24시잠실ON동물의료센터"
 },
 {
  "번호": 460,
  "Name": "동물병원",
  "PhoneNumber": "02-541-7515",
  "address": "서울특별시 강남구 삼성동 70-6",
  "Latitude": 37.5144888,
  "Longitude": 127.0528557,
  "BuildingName": "24시 청담우리 동물병원"
 },
 {
  "번호": 461,
  "Name": "동물병원",
  "PhoneNumber": "02-6497-7582",
  "address": "서울특별시 강동구 명일동 345-20 연우빌딩",
  "Latitude": 37.547239,
  "Longitude": 127.1436574,
  "BuildingName": "미드미동물의료센터"
 },
 {
  "번호": 462,
  "Name": "동물병원",
  "PhoneNumber": "450-0472",
  "address": "서울특별시 광진구 화양동 1",
  "Latitude": 37.5425408,
  "Longitude": 127.0737253,
  "BuildingName": "건국대학교 부속 동물병원"
 },
 {
  "번호": 463,
  "Name": "동물병원",
  "PhoneNumber": "915-5301",
  "address": "서울특별시 성북구 하월곡동 88-677번지",
  "Latitude": 37.6067841,
  "Longitude": 127.0285316,
  "BuildingName": "호담동물병원"
 },
 {
  "번호": 464,
  "Name": "동물병원",
  "PhoneNumber": "2058-1882",
  "address": "서울특별시 서초구 양재동 4-14",
  "Latitude": 37.4809179,
  "Longitude": 127.0416681,
  "BuildingName": "에이블 동물병원"
 },
 {
  "번호": 465,
  "Name": "동물병원",
  "PhoneNumber": "02-2604-3584",
  "address": "서울특별시 강서구 화곡동 134번지 8통3반 공원아파트 507호",
  "Latitude": 37.5406979,
  "Longitude": 126.8472722,
  "BuildingName": "세명 동물병원"
 },
 {
  "번호": 466,
  "Name": "동물병원",
  "PhoneNumber": "02-2281-8122",
  "address": "서울특별시 성동구 홍익동 398-2번지",
  "Latitude": 37.5655385,
  "Longitude": 127.0303174,
  "BuildingName": "라임동물병원"
 },
 {
  "번호": 467,
  "Name": "동물병원",
  "PhoneNumber": "02-2242-7975",
  "address": "서울특별시 동대문구 전농동 652-1번지",
  "Latitude": 37.5751262,
  "Longitude": 127.0496219,
  "BuildingName": "제연동물병원"
 },
 {
  "번호": 468,
  "Name": "동물병원",
  "PhoneNumber": "02-713-8275",
  "address": "서울특별시 마포구 공덕동 385-65 공덕SK리더스뷰",
  "Latitude": 37.5452869,
  "Longitude": 126.9498618,
  "BuildingName": "힐링 24시 동물병원"
 },
 {
  "번호": 469,
  "Name": "동물병원",
  "PhoneNumber": "02-6402-0365",
  "address": "서울특별시 도봉구 방학동 713-35",
  "Latitude": 37.6629674,
  "Longitude": 127.0463638,
  "BuildingName": "365동물병원"
 },
 {
  "번호": 470,
  "Name": "동물병원",
  "PhoneNumber": "02-812-7512",
  "address": "서울특별시 동작구 상도동 486-7",
  "Latitude": 37.4972873,
  "Longitude": 126.9531977,
  "BuildingName": "상도힐링동물병원"
 },
 {
  "번호": 471,
  "Name": "동물병원",
  "PhoneNumber": "02-475-7501",
  "address": "서울특별시 강동구 성내동 446-20 경도빌딩",
  "Latitude": 37.5252181,
  "Longitude": 127.1296371,
  "BuildingName": "석동물병원"
 },
 {
  "번호": 472,
  "Name": "동물병원",
  "PhoneNumber": "592-0202",
  "address": "서울특별시 서초구 반포동 1341",
  "Latitude": 37.5015999,
  "Longitude": 127.0132355,
  "BuildingName": "꿈꾸는 동물병원"
 },
 {
  "번호": 473,
  "Name": "동물병원",
  "PhoneNumber": "577-6125",
  "address": "서울특별시 서초구 양재동 215번지 이마트 양재점 지하1층",
  "Latitude": 37.4630303,
  "Longitude": 127.0364215,
  "BuildingName": "이리온 양재점"
 },
 {
  "번호": 474,
  "Name": "동물병원",
  "PhoneNumber": "02-387-7582",
  "address": "서울특별시 은평구 응암동 91-5",
  "Latitude": 37.5997808,
  "Longitude": 126.9181271,
  "BuildingName": "24시스마트동물메디컬센터"
 },
 {
  "번호": 475,
  "Name": "동물병원",
  "PhoneNumber": "02-983-7000",
  "address": "서울특별시 강북구 미아동 777-3",
  "Latitude": 37.6258596,
  "Longitude": 127.018478,
  "BuildingName": "봉식동물병원"
 },
 {
  "번호": 476,
  "Name": "동물병원",
  "PhoneNumber": "977-0275",
  "address": "서울특별시 노원구 공릉동 362-3번지",
  "Latitude": 37.6285034,
  "Longitude": 127.0718767,
  "BuildingName": "엔젤동물병원"
 },
 {
  "번호": 477,
  "Name": "동물병원",
  "PhoneNumber": "2633-9991",
  "address": "서울특별시 영등포구 당산동1가 40-18번지",
  "Latitude": 37.5215503,
  "Longitude": 126.8962539,
  "BuildingName": "영등포동물병원"
 },
 {
  "번호": 478,
  "Name": "동물병원",
  "address": "서울특별시 강서구 등촌동 628-13번지 101-1호",
  "Latitude": 37.5600872,
  "Longitude": 126.8563619,
  "BuildingName": "24시 안박동물병원"
 },
 {
  "번호": 479,
  "Name": "동물병원",
  "PhoneNumber": "556-7588",
  "address": "서울특별시 강남구 대치동 649 1층",
  "Latitude": 37.4927102,
  "Longitude": 127.0577477,
  "BuildingName": "래이동물의료센터"
 },
 {
  "번호": 480,
  "Name": "동물병원",
  "address": "서울특별시 성동구 행당동 344번지 111호",
  "Latitude": 37.5543707,
  "Longitude": 127.0328371,
  "BuildingName": "도담동물병원(출장진료전문 동물병원)"
 },
 {
  "번호": 481,
  "Name": "동물병원",
  "PhoneNumber": "859-8775",
  "address": "서울특별시 구로구 구로동 501-12번지 진명빌딩",
  "Latitude": 37.5005785,
  "Longitude": 126.8846068,
  "BuildingName": "벨라동물병원"
 },
 {
  "번호": 482,
  "Name": "동물병원",
  "PhoneNumber": "02-2069-0082",
  "address": "서울특별시 영등포구 문래동3가 55-3번지 4층",
  "Latitude": 37.5182266,
  "Longitude": 126.8959242,
  "BuildingName": "도그플러스동물병원"
 },
 {
  "번호": 483,
  "Name": "동물병원",
  "PhoneNumber": "02-338-0275",
  "address": "서울특별시 마포구 합정동 473 마포 한강 2차 푸르지오",
  "Latitude": 37.5483014,
  "Longitude": 126.9111751,
  "BuildingName": "캣&덴탈 하이디 동물병원"
 },
 {
  "번호": 484,
  "Name": "동물병원",
  "PhoneNumber": "511-6364",
  "address": "서울특별시 강남구 역삼동 725-15 2층",
  "Latitude": 37.5001255,
  "Longitude": 127.0393055,
  "BuildingName": "백산동물병원"
 },
 {
  "번호": 485,
  "Name": "동물병원",
  "PhoneNumber": "02-2291-7582",
  "address": "서울특별시 성동구 옥수동 560 어울림상가 301~4호",
  "Latitude": 37.5417014999999,
  "Longitude": 127.0180355,
  "BuildingName": "옥수수 동물병원"
 },
 {
  "번호": 486,
  "Name": "동물병원",
  "PhoneNumber": "3446-8253",
  "address": "서울특별시 강남구 논현동 123-5",
  "Latitude": 37.5112831,
  "Longitude": 127.023878,
  "BuildingName": "와이즈24시 동물병원"
 },
 {
  "번호": 487,
  "Name": "동물병원",
  "PhoneNumber": "951-7707",
  "address": "서울특별시 노원구 중계동 361번지",
  "Latitude": 37.646548,
  "Longitude": 127.0710901,
  "BuildingName": "펫가든"
 },
 {
  "번호": 488,
  "Name": "동물병원",
  "PhoneNumber": "02-419-1010",
  "address": "서울특별시 송파구 잠실동 22-6 리센츠상가 1층 C13,C14호",
  "Latitude": 37.5119601,
  "Longitude": 127.0869604,
  "BuildingName": "리센츠 스타 동물병원"
 },
 {
  "번호": 489,
  "Name": "동물병원",
  "PhoneNumber": "512-0075",
  "address": "서울특별시 강남구 역삼동 834-66",
  "Latitude": 37.4931656,
  "Longitude": 127.0354302,
  "BuildingName": "츄츄 동물병원"
 },
 {
  "번호": 490,
  "Name": "동물병원",
  "PhoneNumber": "512-2575",
  "address": "서울특별시 강남구 삼성동 119-3번지",
  "Latitude": 37.5125477,
  "Longitude": 127.0531599,
  "BuildingName": "마이펫동물의료센터"
 },
 {
  "번호": 491,
  "Name": "동물병원",
  "PhoneNumber": "568-7975",
  "address": "서울특별시 강남구 역삼동 732-26번지",
  "Latitude": 37.4975803,
  "Longitude": 127.0421412,
  "BuildingName": "위너스 동물병원"
 },
 {
  "번호": 492,
  "Name": "동물병원",
  "address": "서울특별시 금천구 독산동 102-12번지 9통9반",
  "Latitude": 37.4747701,
  "Longitude": 126.9068876,
  "BuildingName": "쿨펫동물병원"
 },
 {
  "번호": 493,
  "Name": "동물병원",
  "PhoneNumber": "385-8275",
  "address": "서울특별시 은평구 진관동 20번지 상림마을 821동 101호",
  "Latitude": 37.6422212,
  "Longitude": 126.9226464,
  "BuildingName": "뉴타운동물병원"
 },
 {
  "번호": 494,
  "Name": "동물병원",
  "PhoneNumber": "02-822-0275",
  "address": "서울특별시 동작구 흑석동 6-5번지",
  "Latitude": 37.5080505,
  "Longitude": 126.9640095,
  "BuildingName": "흑석24시동물병원"
 },
 {
  "번호": 495,
  "Name": "동물병원",
  "PhoneNumber": "797-6677",
  "address": "서울특별시 용산구 이태원동 531",
  "Latitude": 37.5364077,
  "Longitude": 126.9872392,
  "BuildingName": "이태원동물병원"
 },
 {
  "번호": 496,
  "Name": "동물병원",
  "PhoneNumber": "499-7582",
  "address": "서울특별시 광진구 중곡동 193-29",
  "Latitude": 37.565952,
  "Longitude": 127.0814789,
  "BuildingName": "다온동물병원"
 },
 {
  "번호": 497,
  "Name": "동물병원",
  "PhoneNumber": "939-7579",
  "address": "서울특별시 노원구 중계동 360-9 두타빌 A동 111,112호",
  "Latitude": 37.649542,
  "Longitude": 127.0763583,
  "BuildingName": "중계이오동물병원"
 },
 {
  "번호": 498,
  "Name": "동물병원",
  "PhoneNumber": "457-7582",
  "address": "서울특별시 광진구 광장동 582",
  "Latitude": 37.5431792,
  "Longitude": 127.0995622,
  "BuildingName": "나루동물병원"
 },
 {
  "번호": 499,
  "Name": "동물병원",
  "PhoneNumber": "2648-8275",
  "address": "서울특별시 양천구 목동 907-10번지",
  "Latitude": 37.5366731,
  "Longitude": 126.8798489,
  "BuildingName": "목동 동물병원"
 },
 {
  "번호": 500,
  "Name": "동물병원",
  "PhoneNumber": "302-3275",
  "address": "서울특별시 서대문구 북가좌동 306-21번지",
  "Latitude": 37.5788367,
  "Longitude": 126.9108074,
  "BuildingName": "두리틀동물병원"
 },
 {
  "번호": 501,
  "Name": "동물병원",
  "PhoneNumber": "2644-0069",
  "address": "서울특별시 양천구 신정동 995-4번지",
  "Latitude": 37.5246617,
  "Longitude": 126.8643993,
  "BuildingName": "상아동물병원"
 },
 {
  "번호": 502,
  "Name": "동물병원",
  "PhoneNumber": "02-419-7580",
  "address": "서울특별시 송파구 석촌동 217 달성빌딩",
  "Latitude": 37.5002117,
  "Longitude": 127.0969598,
  "BuildingName": "이룸동물병원"
 },
 {
  "번호": 503,
  "Name": "동물병원",
  "PhoneNumber": "02-574-0511",
  "address": "서울특별시 서초구 신원동 412-5번지 힐스테이트서초잰트리스 103호",
  "Latitude": 37.4441742,
  "Longitude": 127.062145,
  "BuildingName": "하나동물병원"
 },
 {
  "번호": 504,
  "Name": "동물병원",
  "PhoneNumber": "707-2235",
  "address": "서울특별시 용산구 산천동 202번지 삼성테마트 119호",
  "Latitude": 37.5339827,
  "Longitude": 126.9503898,
  "BuildingName": "민트동물병원"
 },
 {
  "번호": 505,
  "Name": "동물병원",
  "PhoneNumber": "02-834-7582",
  "address": "서울특별시 영등포구 대림동 776-2번지",
  "Latitude": 37.4984233,
  "Longitude": 126.8955204,
  "BuildingName": "왈츠동물병원"
 },
 {
  "번호": 506,
  "Name": "동물병원",
  "PhoneNumber": "02-823-7500",
  "address": "서울특별시 동작구 상도동 34-18번지 1층 및 2층",
  "Latitude": 37.5038557,
  "Longitude": 126.9468962,
  "BuildingName": "우리아이동물병원"
 },
 {
  "번호": 507,
  "Name": "동물병원",
  "PhoneNumber": "02-359-2020",
  "address": "서울특별시 은평구 대조동 187-24",
  "Latitude": 37.6165464,
  "Longitude": 126.9231743,
  "BuildingName": "Dr.윤24시동물병원"
 },
 {
  "번호": 508,
  "Name": "동물병원",
  "PhoneNumber": "02-466-2475",
  "address": "서울특별시 성동구 성수동2가 333-3번지 1층",
  "Latitude": 37.5390973,
  "Longitude": 127.0532291,
  "BuildingName": "서울숲동물병원"
 },
 {
  "번호": 509,
  "Name": "동물병원",
  "PhoneNumber": "02-880-8661",
  "address": "서울특별시 관악구 신림동 149",
  "Latitude": 37.4681975,
  "Longitude": 126.9517638,
  "BuildingName": "서울대학교 수의과대학 동물병원"
 },
 {
  "번호": 510,
  "Name": "동물병원",
  "PhoneNumber": "02-813-4567",
  "address": "서울특별시 동작구 흑석동 335-1번지",
  "Latitude": 37.506598,
  "Longitude": 126.9664777,
  "BuildingName": "나무동물병원"
 },
 {
  "번호": 511,
  "Name": "동물병원",
  "PhoneNumber": "790-9808",
  "address": "서울특별시 용산구 보광동 80-11번지",
  "Latitude": 37.5265218,
  "Longitude": 127.0007584,
  "BuildingName": "보광동물병원"
 },
 {
  "번호": 512,
  "Name": "동물병원",
  "PhoneNumber": "02-326-0275",
  "address": "서울특별시 마포구 망원동 338-76",
  "Latitude": 37.5528969,
  "Longitude": 126.9065453,
  "BuildingName": "박효리군 동물병원"
 },
 {
  "번호": 513,
  "Name": "동물병원",
  "PhoneNumber": "794-1255",
  "address": "서울특별시 용산구 한남동 707-36번지 한남프라자 2층",
  "Latitude": 37.5355646999999,
  "Longitude": 127.0065155,
  "BuildingName": "달래동물의료센터"
 },
 {
  "번호": 514,
  "Name": "동물병원",
  "PhoneNumber": "02-3476-3535",
  "address": "서울특별시 서초구 반포동 20-51 베리스타운102\/108호",
  "Latitude": 37.5066782,
  "Longitude": 127.013939,
  "BuildingName": "반포자이동물병원"
 },
 {
  "번호": 515,
  "Name": "동물병원",
  "PhoneNumber": "02-593-8275",
  "address": "서울특별시 동작구 사당동 148-9 1층 및 2층",
  "Latitude": 37.4848189,
  "Longitude": 126.9796285,
  "BuildingName": "굿파파 24시 반려동물건강검진센터"
 },
 {
  "번호": 516,
  "Name": "동물병원",
  "PhoneNumber": "02-3295-3927",
  "address": "서울특별시 동대문구 용두동 38-17번지",
  "Latitude": 37.5746701,
  "Longitude": 127.0376297,
  "BuildingName": "엘동물병원"
 },
 {
  "번호": 517,
  "Name": "동물병원",
  "PhoneNumber": "554-7582",
  "address": "서울특별시 강남구 개포동 189 개포자이 스퀘어상가 208호",
  "Latitude": 37.4855599,
  "Longitude": 127.0713384,
  "BuildingName": "스마트동물병원"
 },
 {
  "번호": 518,
  "Name": "동물병원",
  "PhoneNumber": "976-7582",
  "address": "서울특별시 노원구 공릉동 494-17번지 영운빌딩 1층",
  "Latitude": 37.623801,
  "Longitude": 127.073232,
  "BuildingName": "스마일플러스동물병원"
 },
 {
  "번호": 519,
  "Name": "동물병원",
  "PhoneNumber": "02-305-8275",
  "address": "서울특별시 서대문구 북가좌동 304-29",
  "Latitude": 37.5771814,
  "Longitude": 126.9108988,
  "BuildingName": "가재울봉쥬르동물병원"
 },
 {
  "번호": 520,
  "Name": "동물병원",
  "PhoneNumber": "02-2043-7582",
  "address": "서울특별시 송파구 오금동 17 왕천빌딩 1층",
  "Latitude": 37.5096991,
  "Longitude": 127.1273205,
  "BuildingName": "유앤동물의료원"
 },
 {
  "번호": 521,
  "Name": "동물병원",
  "PhoneNumber": "534-3475",
  "address": "서울특별시 서초구 반포동 20-45 반포자이프라자 133호",
  "Latitude": 37.5071264,
  "Longitude": 127.0098413,
  "BuildingName": "24시예스동물병원"
 },
 {
  "번호": 522,
  "Name": "동물병원",
  "PhoneNumber": "303-1114",
  "address": "서울특별시 서대문구 남가좌동 338-39번지",
  "Latitude": 37.5766521,
  "Longitude": 126.9248462,
  "BuildingName": "한스동물병원"
 },
 {
  "번호": 523,
  "Name": "동물병원",
  "PhoneNumber": "706-7975",
  "address": "서울특별시 용산구 산천동 93-1번지",
  "Latitude": 37.5342796,
  "Longitude": 126.9511238,
  "BuildingName": "차오름동물병원"
 },
 {
  "번호": 524,
  "Name": "동물병원",
  "PhoneNumber": "512-3331",
  "address": "서울특별시 강남구 삼성동 90-8 스타빌딩",
  "Latitude": 37.5155253,
  "Longitude": 127.0493901,
  "BuildingName": "중앙동물메디컬센터"
 },
 {
  "번호": 525,
  "Name": "동물병원",
  "PhoneNumber": "02-883-2733",
  "address": "서울특별시 관악구 봉천동 1665-4번지",
  "Latitude": 37.4801542,
  "Longitude": 126.9565041,
  "BuildingName": "관악동물종합병원"
 },
 {
  "번호": 526,
  "Name": "동물병원",
  "PhoneNumber": "02-393-7588",
  "address": "서울특별시 중구 만리동2가 273 서울역센트럴자이",
  "Latitude": 37.554538,
  "Longitude": 126.9636814,
  "BuildingName": "백슬동물병원"
 },
 {
  "번호": 527,
  "Name": "동물병원",
  "PhoneNumber": "514-7582",
  "address": "서울특별시 강남구 논현동 234-26 상하빌딩 1층",
  "Latitude": 37.5077273,
  "Longitude": 127.0344594,
  "BuildingName": "강남동물병원"
 },
 {
  "번호": 528,
  "Name": "동물병원",
  "PhoneNumber": "02-2667-5666",
  "address": "서울특별시 강서구 내발산동 1139번지 16통3반 초록아파트 107동 702호",
  "Latitude": 37.5524944,
  "Longitude": 126.8333061,
  "BuildingName": "스마일동물병원"
 },
 {
  "번호": 529,
  "Name": "동물병원",
  "PhoneNumber": "3439-7533",
  "address": "서울특별시 구로구 신도림동 337 홈플러스 신도림점 지하1층",
  "Latitude": 37.5094204,
  "Longitude": 126.8877437,
  "BuildingName": "아이러브펫동물병원(신도림점)"
 },
 {
  "번호": 530,
  "Name": "동물병원",
  "PhoneNumber": "450-9372",
  "address": "서울특별시 광진구 능동 18-0",
  "Latitude": 37.5495886,
  "Longitude": 127.081578,
  "BuildingName": "서울어린이대공원동물병원"
 },
 {
  "번호": 531,
  "Name": "동물병원",
  "PhoneNumber": "457-2220",
  "address": "서울특별시 광진구 자양동 553-588",
  "Latitude": 37.5349189,
  "Longitude": 127.0703778,
  "BuildingName": "준동물병원"
 },
 {
  "번호": 532,
  "Name": "동물병원",
  "PhoneNumber": "2643-0283",
  "address": "서울특별시 양천구 목동 919-7 홈플러스목동점",
  "Latitude": 37.5302596,
  "Longitude": 126.8732586,
  "BuildingName": "닥터펫동물병원"
 },
 {
  "번호": 533,
  "Name": "동물병원",
  "PhoneNumber": "2066-2579",
  "address": "서울특별시 구로구 오류동 166-9",
  "Latitude": 37.4898309,
  "Longitude": 126.8397492,
  "BuildingName": "캥거루 동물병원"
 },
 {
  "번호": 534,
  "Name": "동물병원",
  "PhoneNumber": "2256-7582",
  "address": "서울특별시 중구 신당동 373-64번지",
  "Latitude": 37.5543109,
  "Longitude": 127.0114858,
  "BuildingName": "웰펫동물병원"
 },
 {
  "번호": 535,
  "Name": "동물병원",
  "PhoneNumber": "792-5455",
  "address": "서울특별시 용산구 이촌동 300-23 한강맨션상가 105호",
  "Latitude": 37.5193297,
  "Longitude": 126.9750267,
  "BuildingName": "(주)이상윤동물병원"
 },
 {
  "번호": 536,
  "Name": "동물병원",
  "PhoneNumber": "786-7582",
  "address": "서울특별시 영등포구 여의도동 47 여의도자이",
  "Latitude": 37.5180719,
  "Longitude": 126.9259554,
  "BuildingName": "I-pet 동물병원"
 },
 {
  "번호": 537,
  "Name": "동물병원",
  "PhoneNumber": "02-817-8172",
  "address": "서울특별시 동작구 상도1동 261",
  "Latitude": 37.5000285,
  "Longitude": 126.9507408,
  "BuildingName": "정겨운동물병원"
 },
 {
  "번호": 538,
  "Name": "동물병원",
  "PhoneNumber": "3275-0079",
  "address": "서울특별시 용산구 효창동 79-1번지 지상1층",
  "Latitude": 37.5395968,
  "Longitude": 126.9610827,
  "BuildingName": "펫동물병원"
 },
 {
  "번호": 539,
  "Name": "동물병원",
  "PhoneNumber": "713-0053",
  "address": "서울특별시 용산구 원효로1가 133-3번지 리첸시아 용산 A동 106호",
  "Latitude": 37.5382753,
  "Longitude": 126.9673632,
  "BuildingName": "엉클장동물병원"
 },
 {
  "번호": 540,
  "Name": "동물병원",
  "PhoneNumber": "02-3443-8275",
  "address": "서울특별시 강남구 삼성동 35-3 1층",
  "Latitude": 37.5120913,
  "Longitude": 127.0435002,
  "BuildingName": "닥터펫동물의료센터"
 },
 {
  "번호": 541,
  "Name": "동물병원",
  "PhoneNumber": "3665-1838",
  "address": "서울특별시 강서구 가양동 17번지 4통10반 파크리오 119동 403호",
  "Latitude": 37.5632624,
  "Longitude": 126.8511425,
  "BuildingName": "가양쿨펫동물병원"
 },
 {
  "번호": 542,
  "Name": "동물병원",
  "PhoneNumber": "02-423-8280",
  "address": "서울특별시 송파구 잠실동 19-9 잠실파인애플상가 A동 2층 9,10호",
  "Latitude": 37.5120464,
  "Longitude": 127.0841726,
  "BuildingName": "연 동물병원"
 },
 {
  "번호": 543,
  "Name": "동물병원",
  "PhoneNumber": "02-323-8275",
  "address": "서울특별시 마포구 서교동 444-5",
  "Latitude": 37.5533797999999,
  "Longitude": 126.9122367,
  "BuildingName": "로얄동물메디컬센터w"
 },
 {
  "번호": 544,
  "Name": "동물병원",
  "PhoneNumber": "773-1119",
  "address": "서울특별시 용산구 후암동 244-11",
  "Latitude": 37.5487103,
  "Longitude": 126.9779393,
  "BuildingName": "아프리카동물병원"
 },
 {
  "번호": 545,
  "Name": "동물병원",
  "PhoneNumber": "2208-6788",
  "address": "서울특별시 중랑구 면목동 119-10 1,2층",
  "Latitude": 37.5881943,
  "Longitude": 127.0858997,
  "BuildingName": "한국동물메디컬센터(KAMC)"
 },
 {
  "번호": 546,
  "Name": "동물병원",
  "PhoneNumber": "02-3473-0911",
  "address": "서울특별시 서초구 방배동 915-10 우성빌딩",
  "Latitude": 37.4766848,
  "Longitude": 126.984527,
  "BuildingName": "반려동물 의료센터 다울"
 },
 {
  "번호": 547,
  "Name": "동물병원",
  "PhoneNumber": "02-986-9875",
  "address": "서울특별시 강북구 미아동 812번지 래미안트리베라 201동 116호",
  "Latitude": 37.6173113,
  "Longitude": 127.0204017,
  "BuildingName": "쿠키동물병원"
 },
 {
  "번호": 548,
  "Name": "동물병원",
  "PhoneNumber": "02-3445-7275",
  "address": "서울특별시 강남구 청담동 132-19 정화빌딩",
  "Latitude": 37.5210225,
  "Longitude": 127.0571261,
  "BuildingName": "일마레 동물 메디컬 센터"
 },
 {
  "번호": 549,
  "Name": "동물병원",
  "PhoneNumber": "02-575-7581",
  "address": "서울특별시 강남구 개포동 1187-1번지",
  "Latitude": 37.4742316,
  "Longitude": 127.0498203,
  "BuildingName": "한 동물병원"
 },
 {
  "번호": 550,
  "Name": "동물병원",
  "PhoneNumber": "02-3665-7588",
  "address": "서울특별시 강서구 마곡동 799-2 푸리마타워",
  "Latitude": 37.5589267,
  "Longitude": 126.8287147,
  "BuildingName": "땅콩 동물병원"
 },
 {
  "번호": 551,
  "Name": "동물병원",
  "PhoneNumber": "02-832-0081",
  "address": "서울특별시 관악구 신림동 1429-3",
  "Latitude": 37.4892423999999,
  "Longitude": 126.9272196,
  "BuildingName": "예일동물병원"
 },
 {
  "번호": 552,
  "Name": "동물병원",
  "PhoneNumber": "02-417-3021",
  "address": "서울특별시 송파구 방이동 181 태평양파크빌라트",
  "Latitude": 37.5132916,
  "Longitude": 127.123111,
  "BuildingName": "스킨앤이어동물병원"
 },
 {
  "번호": 553,
  "Name": "동물병원",
  "PhoneNumber": "905-7588",
  "address": "서울특별시 노원구 월계동 3-94번지 드림빌 201호",
  "Latitude": 37.6217817,
  "Longitude": 127.0691731,
  "BuildingName": "아란종합동물병원"
 },
 {
  "번호": 554,
  "Name": "동물병원",
  "PhoneNumber": "02-592-8875",
  "address": "서울특별시 동작구 사당동 162-96번지 1층",
  "Latitude": 37.4876756,
  "Longitude": 126.9755525,
  "BuildingName": "이수동물병원"
 },
 {
  "번호": 555,
  "Name": "동물병원",
  "PhoneNumber": "02-549-7582",
  "address": "서울특별시 강남구 논현동 191-12 1~4층",
  "Latitude": 37.5090402,
  "Longitude": 127.0327508,
  "BuildingName": "충현동물병원"
 },
 {
  "번호": 556,
  "Name": "동물병원",
  "PhoneNumber": "02-957-7075",
  "address": "서울특별시 동대문구 용두동 790번지 롯데캐슬피렌체",
  "Latitude": 37.5772055,
  "Longitude": 127.0357731,
  "BuildingName": "그린동물병원"
 },
 {
  "번호": 557,
  "Name": "동물병원",
  "PhoneNumber": "833-7554",
  "address": "서울특별시 영등포구 신길동 4824",
  "Latitude": 37.493469,
  "Longitude": 126.909807,
  "BuildingName": "유석동물병원"
 },
 {
  "번호": 558,
  "Name": "동물병원",
  "PhoneNumber": "02-2697-0052",
  "address": "서울특별시 강서구 내발산동 722-15",
  "Latitude": 37.5481173,
  "Longitude": 126.8345759,
  "BuildingName": "오즈동물병원"
 },
 {
  "번호": 559,
  "Name": "동물병원",
  "PhoneNumber": "02-484-5252",
  "BuildingName": "성내동물병원"
 },
 {
  "번호": 560,
  "Name": "동물병원",
  "PhoneNumber": "02-3486-7707",
  "address": "서울특별시 동작구 사당동 1047-49번지 102호",
  "Latitude": 37.4771204,
  "Longitude": 126.9767037,
  "BuildingName": "세인트필립 동물병원"
 },
 {
  "번호": 561,
  "Name": "동물병원",
  "PhoneNumber": "845-0780",
  "address": "서울특별시 영등포구 신길동 214-55",
  "Latitude": 37.5108352,
  "Longitude": 126.9120421,
  "BuildingName": "온누리 종합동물병원"
 },
 {
  "번호": 562,
  "Name": "동물병원",
  "PhoneNumber": "939-6898",
  "address": "서울특별시 노원구 상계동 682번지 13통8반 동신아파트 103동 708호",
  "Latitude": 37.6645511,
  "Longitude": 127.0638272,
  "BuildingName": "이앤박동물병원"
 },
 {
  "번호": 563,
  "Name": "동물병원",
  "PhoneNumber": "927-7585",
  "address": "서울특별시 성북구 종암동 86-1번지",
  "Latitude": 37.6001609,
  "Longitude": 127.0336744,
  "BuildingName": "쓰담쓰담 동물병원"
 },
 {
  "번호": 564,
  "Name": "동물병원",
  "PhoneNumber": 25219010,
  "address": "서울특별시 서초구 방배동 925-8번지",
  "Latitude": 37.4846563,
  "Longitude": 126.9952475,
  "BuildingName": "디아나동물병원"
 },
 {
  "번호": 565,
  "Name": "동물병원",
  "PhoneNumber": "02-2281-5200",
  "address": "서울특별시 성동구 행당동 226-3",
  "Latitude": 37.5596614,
  "Longitude": 127.0370141,
  "BuildingName": "한양동물메디컬센터"
 },
 {
  "번호": 566,
  "Name": "동물병원",
  "PhoneNumber": 234220977,
  "address": "서울특별시 중랑구 신내동 648번지 디아뜨갤러리",
  "Latitude": 37.616864,
  "Longitude": 127.0915681,
  "BuildingName": "하니동물병원"
 },
 {
  "번호": 567,
  "Name": "동물병원",
  "PhoneNumber": "02-587-5618",
  "address": "서울특별시 동작구 사당동 224-24번지",
  "Latitude": 37.4858866,
  "Longitude": 126.968519,
  "BuildingName": "원동물병원"
 },
 {
  "번호": 568,
  "Name": "동물병원",
  "PhoneNumber": "2631-0085",
  "address": "서울특별시 구로구 신도림동 432-1 신도림에스케이뷰 101동 103호, 104호",
  "Latitude": 37.5070047,
  "Longitude": 126.8864977,
  "BuildingName": "구로종합동물병원"
 },
 {
  "번호": 569,
  "Name": "동물병원",
  "PhoneNumber": "02-2693-0075",
  "address": "서울특별시 강서구 화곡동 1070-1번지",
  "Latitude": 37.5397855,
  "Longitude": 126.8344658,
  "BuildingName": "파스텔동물병원"
 },
 {
  "번호": 570,
  "Name": "동물병원",
  "PhoneNumber": "02-3442-5554",
  "address": "서울특별시 강남구 논현동 122-20 1층",
  "Latitude": 37.5106039,
  "Longitude": 127.0241996,
  "BuildingName": "그레이스 동물병원"
 },
 {
  "번호": 571,
  "Name": "동물병원",
  "PhoneNumber": "02-3412-7582",
  "address": "서울특별시 강남구 개포동 186-17번지 개포종합상가 1층",
  "Latitude": 37.4892714,
  "Longitude": 127.0688177,
  "BuildingName": "개포동물병원"
 },
 {
  "번호": 572,
  "Name": "동물병원",
  "PhoneNumber": "382-7511",
  "address": "서울특별시 은평구 진관동 5번지 은평뉴타운상림마을 629동 116호",
  "Latitude": 37.64796,
  "Longitude": 126.9288473,
  "BuildingName": "한빛동물병원"
 },
 {
  "번호": 573,
  "Name": "동물병원",
  "PhoneNumber": "969-0075",
  "address": "서울특별시 성북구 석관동 332-23번지",
  "Latitude": 37.6070281,
  "Longitude": 127.0606851,
  "BuildingName": "태양 동물병원"
 },
 {
  "번호": 574,
  "Name": "동물병원",
  "PhoneNumber": "2645-7588",
  "address": "서울특별시 양천구 목동 907번지 현대월드타워 160호",
  "Latitude": 37.535881,
  "Longitude": 126.8780365,
  "BuildingName": "가나종합동물병원"
 },
 {
  "번호": 575,
  "Name": "동물병원",
  "PhoneNumber": "02-443-2222",
  "address": "서울특별시 송파구 가락동 137-3 현대빌리지",
  "Latitude": 37.4928086,
  "Longitude": 127.1281483,
  "BuildingName": "에코동물병원"
 },
 {
  "번호": 576,
  "Name": "동물병원",
  "PhoneNumber": "02-3476-7522",
  "address": "서울특별시 서초구 반포동 18-3 래미안퍼스티지 중심상가 147-8호",
  "Latitude": 37.5044951,
  "Longitude": 127.0007548,
  "BuildingName": "두리종합동물병원"
 },
 {
  "번호": 577,
  "Name": "동물병원",
  "PhoneNumber": "02-701-7580",
  "address": "서울특별시 마포구 노고산동 40-56 웨스턴5빌딩",
  "Latitude": 37.5551902,
  "Longitude": 126.9380557,
  "BuildingName": "웨스턴 동물의료센터"
 },
 {
  "번호": 578,
  "Name": "동물병원",
  "PhoneNumber": "988-6543",
  "address": "서울특별시 강북구 미아동 1318번지",
  "Latitude": 37.6119322,
  "Longitude": 127.0353652,
  "BuildingName": "호 동물병원"
 },
 {
  "번호": 579,
  "Name": "동물병원",
  "PhoneNumber": "02-529-5575",
  "address": "서울특별시 강남구 역삼동 798-20 1층, 2층",
  "Latitude": 37.492431,
  "Longitude": 127.0400167,
  "BuildingName": "예은동물병원"
 },
 {
  "번호": 580,
  "Name": "동물병원",
  "PhoneNumber": "02-415-7579",
  "address": "서울특별시 송파구 신천동 17 파크리오상가 36호",
  "Latitude": 37.5208561,
  "Longitude": 127.1044507,
  "BuildingName": "리오동물병원"
 },
 {
  "번호": 581,
  "Name": "동물병원",
  "PhoneNumber": "02-735-7530",
  "address": "서울특별시 종로구 내자동 125-3번지",
  "Latitude": 37.5757926,
  "Longitude": 126.9710648,
  "BuildingName": "누리봄동물병원"
 },
 {
  "번호": 582,
  "Name": "동물병원",
  "PhoneNumber": "903-5525",
  "address": "서울특별시 강북구 수유동 472-268번지 예향교회 1층",
  "Latitude": 37.6334469,
  "Longitude": 127.0177428,
  "BuildingName": "보노보노동물병원"
 },
 {
  "번호": 583,
  "Name": "동물병원",
  "PhoneNumber": "2645-2727",
  "address": "서울특별시 양천구 목동 962 목동트라팰리스",
  "Latitude": 37.5259926,
  "Longitude": 126.8703832,
  "BuildingName": "쿨펫이마트 목동점 동물병원"
 },
 {
  "번호": 584,
  "Name": "동물병원",
  "PhoneNumber": "307-3335",
  "address": "서울특별시 서대문구 북가좌동 333-7번지 302호",
  "Latitude": 37.5831295,
  "Longitude": 126.9134814,
  "BuildingName": "초콜릿종합동물병원"
 },
 {
  "번호": 585,
  "Name": "동물병원",
  "PhoneNumber": "792-7585",
  "address": "서울특별시 용산구 이태원동 225-93번지",
  "Latitude": 37.5396459,
  "Longitude": 126.9895614,
  "BuildingName": "라온동물병원"
 },
 {
  "번호": 586,
  "Name": "동물병원",
  "PhoneNumber": "798-7512",
  "address": "서울특별시 용산구 이촌동 301-263 렉스상가 8-1,8-2호",
  "Latitude": 37.517895,
  "Longitude": 126.9800405,
  "BuildingName": "금강동물병원"
 },
 {
  "번호": 587,
  "Name": "동물병원",
  "PhoneNumber": "953-0075",
  "address": "서울특별시 성북구 동소문동6가 3-1 시티플레이스",
  "Latitude": 37.5922073,
  "Longitude": 127.0134454,
  "BuildingName": "VIP 동물의료센터"
 },
 {
  "번호": 588,
  "Name": "동물병원",
  "PhoneNumber": "437-7579",
  "address": "서울특별시 중랑구 면목동 606-6번지",
  "Latitude": 37.581215,
  "Longitude": 127.0849021,
  "BuildingName": "면목동물병원"
 },
 {
  "번호": 589,
  "Name": "동물병원",
  "PhoneNumber": "02-874-7585",
  "address": "서울특별시 관악구 봉천동 34-51번지",
  "Latitude": 37.4848428,
  "Longitude": 126.9551257,
  "BuildingName": "프렌즈동물병원"
 },
 {
  "번호": 590,
  "Name": "동물병원",
  "PhoneNumber": "354-0087",
  "address": "서울특별시 은평구 신사동 35-20 동현빌딩",
  "Latitude": 37.5932525,
  "Longitude": 126.9138091,
  "BuildingName": "야옹동물병원"
 },
 {
  "번호": 591,
  "Name": "동물병원",
  "PhoneNumber": "02-887-2165",
  "address": "서울특별시 관악구 신림동 1429-2번지",
  "Latitude": 37.4891418,
  "Longitude": 126.9275421,
  "BuildingName": "서진동물병원"
 },
 {
  "번호": 592,
  "Name": "동물병원",
  "PhoneNumber": "02-449-8575",
  "address": "서울특별시 송파구 마천동 161-2",
  "Latitude": 37.499522,
  "Longitude": 127.1531453,
  "BuildingName": "두리동물병원"
 },
 {
  "번호": 593,
  "Name": "동물병원",
  "PhoneNumber": "996-8275",
  "address": "서울특별시 도봉구 창동 749-16번지",
  "Latitude": 37.6594299,
  "Longitude": 127.0417786,
  "BuildingName": "행복한동물병원"
 },
 {
  "번호": 594,
  "Name": "동물병원",
  "address": "서울특별시 노원구 월계동 331-1 번지 신세계이마트 2층",
  "Latitude": 37.6325214,
  "Longitude": 127.0456448,
  "BuildingName": "로얄벳 동물병원"
 },
 {
  "번호": 595,
  "Name": "동물병원",
  "PhoneNumber": "535-7579",
  "address": "서울특별시 서초구 잠원동 49-8번지",
  "Latitude": 37.521318,
  "Longitude": 127.0151307,
  "BuildingName": "리즈동물병원"
 },
 {
  "번호": 596,
  "Name": "동물병원",
  "PhoneNumber": "805-4758",
  "address": "서울특별시 금천구 시흥동 262-6번지",
  "Latitude": 37.4502121,
  "Longitude": 126.9125737,
  "BuildingName": "노아동물병원"
 },
 {
  "번호": 597,
  "Name": "동물병원",
  "PhoneNumber": "926-8275",
  "address": "서울특별시 성북구 보문동5가 3-1",
  "Latitude": 37.5839384,
  "Longitude": 127.0198341,
  "BuildingName": "24시 애니동물병원"
 },
 {
  "번호": 598,
  "Name": "동물병원",
  "PhoneNumber": "978-4775",
  "address": "서울특별시 노원구 중계동 947-16번지 38통5반 3층",
  "Latitude": 37.6510125,
  "Longitude": 127.0799977,
  "BuildingName": "웰리스 동물병원"
 },
 {
  "번호": 599,
  "Name": "동물병원",
  "PhoneNumber": "02-2282-7503",
  "address": "서울특별시 성동구 행당동 346번지 한진노변상가 109호",
  "Latitude": 37.5558801,
  "Longitude": 127.0292075,
  "BuildingName": "이윤세동물병원"
 },
 {
  "번호": 600,
  "Name": "동물병원",
  "PhoneNumber": "02-442-2223",
  "BuildingName": "늘사랑동물병원"
 },
 {
  "번호": 601,
  "Name": "동물병원",
  "PhoneNumber": "464-2748",
  "address": "서울특별시 광진구 자양동 236-127",
  "Latitude": 37.5368873,
  "Longitude": 127.0617784,
  "BuildingName": "노룬산동물병원"
 },
 {
  "번호": 602,
  "Name": "동물병원",
  "PhoneNumber": "2690-5673",
  "address": "서울특별시 양천구 신월동 446-4번지",
  "Latitude": 37.5238251,
  "Longitude": 126.8423268,
  "BuildingName": "햇살동물병원"
 },
 {
  "번호": 603,
  "Name": "동물병원",
  "PhoneNumber": "2694-4821",
  "address": "서울특별시 강서구 화곡동 1059-51번지",
  "Latitude": 37.5438693,
  "Longitude": 126.8431179,
  "BuildingName": "대한동물병원"
 },
 {
  "번호": 604,
  "Name": "동물병원",
  "PhoneNumber": "989-8575",
  "address": "서울특별시 성북구 길음동 1125-9번지",
  "Latitude": 37.6108513,
  "Longitude": 127.0225606,
  "BuildingName": "우리동물병원"
 },
 {
  "번호": 605,
  "Name": "동물병원",
  "PhoneNumber": "02-6954-7582",
  "address": "서울특별시 광진구 자양동 662-13",
  "Latitude": 37.5315966,
  "Longitude": 127.0839381,
  "BuildingName": "해맑은동물병원"
 },
 {
  "번호": 606,
  "Name": "동물병원",
  "PhoneNumber": "951-7582",
  "address": "서울특별시 노원구 상계동 749-10",
  "Latitude": 37.6509224,
  "Longitude": 127.0618808,
  "BuildingName": "한빛종합동물병원"
 },
 {
  "번호": 607,
  "Name": "동물병원",
  "PhoneNumber": "973-7588",
  "address": "서울특별시 노원구 월계동 26-13 석계문고",
  "Latitude": 37.615336,
  "Longitude": 127.0666539,
  "BuildingName": "우솔종합동물병원"
 },
 {
  "번호": 608,
  "Name": "동물병원",
  "PhoneNumber": "02-416-7512",
  "address": "서울특별시 송파구 신천동 11-4 잠실 푸르지오 월드마크 상가 207호",
  "Latitude": 37.5174375,
  "Longitude": 127.1035775,
  "BuildingName": "더 샵 동물메디컬센터"
 },
 {
  "번호": 609,
  "Name": "동물병원",
  "PhoneNumber": "3676-1190",
  "address": "서울특별시 종로구 숭인동 52-8번지",
  "Latitude": 37.578706,
  "Longitude": 127.0156445,
  "BuildingName": "우리동물병원"
 },
 {
  "번호": 610,
  "Name": "동물병원",
  "PhoneNumber": "457-8575",
  "address": "서울특별시 광진구 자양동 606-14번지",
  "Latitude": 37.5320502,
  "Longitude": 127.0787833,
  "BuildingName": "로엘동물병원"
 },
 {
  "번호": 611,
  "Name": "동물병원",
  "PhoneNumber": "02-813-7579",
  "address": "서울특별시 동작구 대방동 395-4",
  "Latitude": 37.5000152,
  "Longitude": 126.9254647,
  "BuildingName": "피닉스동물병원"
 },
 {
  "번호": 612,
  "Name": "동물병원",
  "address": "서울특별시 강서구 화곡동 313번지 목동신시가지 아파트 902-203",
  "Latitude": 37.5406979,
  "Longitude": 126.8472722,
  "BuildingName": "다나동물병원"
 },
 {
  "번호": 613,
  "Name": "동물병원",
  "PhoneNumber": "2665-8256",
  "address": "서울특별시 강서구 방화동 1265번지 24통4반 숲속마을 402동 502호",
  "Latitude": 37.5759058,
  "Longitude": 126.8135931,
  "BuildingName": "굿모닝동물병원"
 },
 {
  "번호": 614,
  "Name": "동물병원",
  "PhoneNumber": "809-0075",
  "address": "서울특별시 금천구 독산동 1150번지 금천롯데캐슬골드파크2차",
  "Latitude": 37.4579752,
  "Longitude": 126.8943466,
  "BuildingName": "금나래동물병원"
 },
 {
  "번호": 615,
  "Name": "동물병원",
  "PhoneNumber": "02-785-7582",
  "address": "서울특별시 영등포구 여의도동 42 한양아파트",
  "Latitude": 37.520815,
  "Longitude": 126.9322,
  "BuildingName": "Dr.수동물병원"
 },
 {
  "번호": 616,
  "Name": "동물병원",
  "PhoneNumber": "980-2340",
  "address": "서울특별시 강북구 미아동 813번지 지층 1-2, 1-3호 110동",
  "Latitude": 37.6139419,
  "Longitude": 127.0207264,
  "BuildingName": "삼성동물병원"
 },
 {
  "번호": 617,
  "Name": "동물병원",
  "PhoneNumber": "02-476-8275",
  "BuildingName": "시온동물병원"
 },
 {
  "번호": 618,
  "Name": "동물병원",
  "PhoneNumber": "597-7522",
  "address": "서울특별시 서초구 방배동 984-1 머리재빌딩 105호",
  "Latitude": 37.4811934,
  "Longitude": 126.9983361,
  "BuildingName": "프렌즈동물병원"
 },
 {
  "번호": 619,
  "Name": "동물병원",
  "PhoneNumber": "02-337-7575",
  "address": "서울특별시 마포구 서교동 447-2 이화빌딩",
  "Latitude": 37.5530909999999,
  "Longitude": 126.9220032,
  "BuildingName": "웰케어동물병원"
 },
 {
  "번호": 620,
  "Name": "동물병원",
  "PhoneNumber": "914-5545",
  "address": "서울특별시 성북구 정릉동 16-162",
  "Latitude": 37.6020103,
  "Longitude": 127.019543,
  "BuildingName": "ZOO동물병원"
 },
 {
  "번호": 621,
  "Name": "동물병원",
  "PhoneNumber": "943-8376",
  "address": "서울특별시 성북구 정릉동 285-4 정호빌딩",
  "Latitude": 37.6106034,
  "Longitude": 127.0093778,
  "BuildingName": "보성통증동물병원"
 },
 {
  "번호": 622,
  "Name": "동물병원",
  "PhoneNumber": "02-3395-7975",
  "address": "서울특별시 성동구 행당동 318-36",
  "Latitude": 37.5586791,
  "Longitude": 127.0336913,
  "BuildingName": "24시센트럴동물메디컬센터"
 },
 {
  "번호": 623,
  "Name": "동물병원",
  "PhoneNumber": "455-0077",
  "address": "서울특별시 광진구 능동 256-1",
  "Latitude": 37.55319,
  "Longitude": 127.0883048,
  "BuildingName": "애플동물병원"
 },
 {
  "번호": 624,
  "Name": "동물병원",
  "PhoneNumber": "912-0018",
  "address": "서울특별시 성북구 하월곡동 16-7번지",
  "Latitude": 37.6029888,
  "Longitude": 127.0421312,
  "BuildingName": "비비펫 동물병원"
 },
 {
  "번호": 625,
  "Name": "동물병원",
  "PhoneNumber": "02-2671-0026",
  "address": "서울특별시 영등포구 당산동5가 11-33 당산디오빌",
  "Latitude": 37.5332974,
  "Longitude": 126.9022397,
  "BuildingName": "디오빌 동물병원"
 },
 {
  "번호": 626,
  "Name": "동물병원",
  "PhoneNumber": "358-7566",
  "address": "서울특별시 은평구 대조동 179-16 북한산 포레스트",
  "Latitude": 37.6075907,
  "Longitude": 126.9221859,
  "BuildingName": "새은평동물의료센터"
 },
 {
  "번호": 627,
  "Name": "동물병원",
  "PhoneNumber": "861-0075",
  "address": "서울특별시 구로구 구로동 722-4",
  "Latitude": 37.4885904,
  "Longitude": 126.8843096,
  "BuildingName": "푸른동물병원"
 },
 {
  "번호": 628,
  "Name": "동물병원",
  "PhoneNumber": "02-875-7579",
  "address": "서울특별시 관악구 봉천동 870-13 신원메트로빌",
  "Latitude": 37.4817054,
  "Longitude": 126.9514243,
  "BuildingName": "서울허브동물병원"
 },
 {
  "번호": 629,
  "Name": "동물병원",
  "PhoneNumber": "02-872-7588",
  "address": "서울특별시 관악구 봉천동 40-29 수안빌딩 1층",
  "Latitude": 37.4864065,
  "Longitude": 126.9564438,
  "BuildingName": "로잔동물의료센터"
 },
 {
  "번호": 630,
  "Name": "동물병원",
  "PhoneNumber": "02-3471-0375",
  "address": "서울특별시 동작구 사당동 1019-54 오사빌딩 1층",
  "Latitude": 37.4809062,
  "Longitude": 126.9814668,
  "BuildingName": "다나동물병원"
 },
 {
  "번호": 631,
  "Name": "동물병원",
  "PhoneNumber": "02-408-5400",
  "address": "서울특별시 송파구 가락동 87-1 MOXENHOUSE",
  "Latitude": 37.4970901,
  "Longitude": 127.11917,
  "BuildingName": "쿨독동물병원"
 },
 {
  "번호": 632,
  "Name": "동물병원",
  "PhoneNumber": "02-2234-1379",
  "address": "서울특별시 동대문구 신설동 109-13번지 청계천 대성 스카이렉스1",
  "Latitude": 37.5719794,
  "Longitude": 127.0238816,
  "BuildingName": "맑은 동물병원"
 },
 {
  "번호": 633,
  "Name": "동물병원",
  "PhoneNumber": "900-7710",
  "address": "서울특별시 노원구 월계동 98-9",
  "Latitude": 37.6282394,
  "Longitude": 127.0567599,
  "BuildingName": "유림동물병원"
 },
 {
  "번호": 634,
  "Name": "동물병원",
  "PhoneNumber": "02-375-7222",
  "address": "서울특별시 마포구 상암동 34-46",
  "Latitude": 37.576043,
  "Longitude": 126.8946596,
  "BuildingName": "상암동물병원"
 },
 {
  "번호": 635,
  "Name": "동물병원",
  "PhoneNumber": "856-4113",
  "address": "서울특별시 금천구 독산동 193-31번지",
  "Latitude": 37.4709672,
  "Longitude": 126.9032366,
  "BuildingName": "그린동물병원"
 },
 {
  "번호": 636,
  "Name": "동물병원",
  "PhoneNumber": "806-8355",
  "address": "서울특별시 금천구 시흥동 838-33번지",
  "Latitude": 37.452602,
  "Longitude": 126.9057943,
  "BuildingName": "조정연동물병원"
 },
 {
  "번호": 637,
  "Name": "동물병원",
  "PhoneNumber": "894-8085",
  "address": "서울특별시 금천구 독산동 378-397",
  "Latitude": 37.4639201,
  "Longitude": 126.9034756,
  "BuildingName": "금천동물병원"
 },
 {
  "번호": 638,
  "Name": "동물병원",
  "PhoneNumber": "805-2825",
  "address": "서울특별시 금천구 독산동 1077-31번지",
  "Latitude": 37.4583082,
  "Longitude": 126.8995427,
  "BuildingName": "파랑새동물병원"
 },
 {
  "번호": 639,
  "Name": "동물병원",
  "PhoneNumber": "967-0300",
  "address": "서울특별시 성북구 석관동 268-11번지",
  "Latitude": 37.6088689,
  "Longitude": 127.05932,
  "BuildingName": "중앙동물병원"
 },
 {
  "번호": 640,
  "Name": "동물병원",
  "PhoneNumber": "02-2652-1865",
  "address": "서울특별시 양천구 신정동 117-37",
  "Latitude": 37.521661,
  "Longitude": 126.8742488,
  "BuildingName": "리더스 동물병원"
 },
 {
  "번호": 641,
  "Name": "동물병원",
  "PhoneNumber": "02-866-0880",
  "address": "서울특별시 관악구 신림동 763-20번지",
  "Latitude": 37.4761106,
  "Longitude": 126.9157567,
  "BuildingName": "와우종합동물병원"
 },
 {
  "번호": 642,
  "Name": "동물병원",
  "PhoneNumber": "02-415-7580",
  "address": "서울특별시 송파구 삼전동 22-1 유시에셋",
  "Latitude": 37.5071064,
  "Longitude": 127.0922698,
  "BuildingName": "잠실준25시동물병원"
 },
 {
  "번호": 643,
  "Name": "동물병원",
  "PhoneNumber": "02-6405-7582",
  "address": "서울특별시 마포구 도화동 182-6",
  "Latitude": 37.5415044,
  "Longitude": 126.9503665,
  "BuildingName": "박창석종합동물병원"
 },
 {
  "번호": 644,
  "Name": "동물병원",
  "PhoneNumber": "02-6085-7750",
  "address": "서울특별시 성동구 금호동4가 1108번지 지상1층",
  "Latitude": 37.5480377,
  "Longitude": 127.0210454,
  "BuildingName": "아지동물병원"
 },
 {
  "번호": 645,
  "Name": "동물병원",
  "PhoneNumber": "02-6052-8275",
  "address": "서울특별시 서초구 반포동 91-10",
  "Latitude": 37.4983569,
  "Longitude": 126.9985246,
  "BuildingName": "서래동물병원"
 },
 {
  "번호": 646,
  "Name": "동물병원",
  "PhoneNumber": "492-9303",
  "address": "서울특별시 중랑구 면목동 103-4 1층",
  "Latitude": 37.5893142,
  "Longitude": 127.0905619,
  "BuildingName": "숲속동물병원"
 },
 {
  "번호": 647,
  "Name": "동물병원",
  "PhoneNumber": "929-1212",
  "address": "서울특별시 성북구 종암동 68-1",
  "Latitude": 37.5983898,
  "Longitude": 127.0343515,
  "BuildingName": "미소동물병원"
 },
 {
  "번호": 648,
  "Name": "동물병원",
  "PhoneNumber": "465-7582",
  "address": "서울특별시 광진구 군자동 363-4번지",
  "Latitude": 37.5505216,
  "Longitude": 127.071161,
  "BuildingName": "보람동물병원"
 },
 {
  "번호": 649,
  "Name": "동물병원",
  "PhoneNumber": "2651-8575",
  "address": "서울특별시 양천구 목동 601-6",
  "Latitude": 37.5480544,
  "Longitude": 126.8678386,
  "BuildingName": "미니주동물병원"
 },
 {
  "번호": 650,
  "Name": "동물병원",
  "PhoneNumber": "949-7512",
  "address": "서울특별시 노원구 공릉동 227-68번지",
  "Latitude": 37.624778,
  "Longitude": 127.0816825,
  "BuildingName": "화랑동물병원"
 },
 {
  "번호": 651,
  "Name": "동물병원",
  "PhoneNumber": "02-575-7999",
  "address": "서울특별시 강남구 도곡동 527-3번지 도곡렉슬아파트 상가동 109호",
  "Latitude": 37.4935677,
  "Longitude": 127.0507717,
  "BuildingName": "고려종합동물병원"
 },
 {
  "번호": 652,
  "Name": "동물병원",
  "PhoneNumber": "937-9724",
  "address": "서울특별시 노원구 상계동 11-410번지 태성빌라 202호",
  "Latitude": 37.6797524,
  "Longitude": 127.0902456,
  "BuildingName": "수락 동물병원"
 },
 {
  "번호": 653,
  "Name": "동물병원",
  "PhoneNumber": 3917502,
  "address": "서울특별시 종로구 홍지동 126-8",
  "Latitude": 37.5992803,
  "Longitude": 126.9589824,
  "BuildingName": "올리브동물병원"
 },
 {
  "번호": 654,
  "Name": "동물병원",
  "PhoneNumber": "2655-2258",
  "address": "서울특별시 양천구 목동 515-1",
  "Latitude": 37.5466971,
  "Longitude": 126.8753913,
  "BuildingName": "행복한동물병원"
 },
 {
  "번호": 655,
  "Name": "동물병원",
  "PhoneNumber": "2695-0072",
  "address": "서울특별시 강서구 화곡동 345-9 12통7반 2층동 202호",
  "Latitude": 37.530504,
  "Longitude": 126.8434165,
  "BuildingName": "세인트동물병원"
 },
 {
  "번호": 656,
  "Name": "동물병원",
  "PhoneNumber": "2068-2277",
  "address": "서울특별시 영등포구 양평동2가 1-1 신동아하이팰리스",
  "Latitude": 37.5218336,
  "Longitude": 126.884621,
  "BuildingName": "애드펫동물병원"
 },
 {
  "번호": 657,
  "Name": "동물병원",
  "PhoneNumber": "432-7530",
  "address": "서울특별시 중랑구 신내동 571-8번지",
  "Latitude": 37.6046986,
  "Longitude": 127.0959238,
  "BuildingName": "진서동물병원"
 },
 {
  "번호": 658,
  "Name": "동물병원",
  "PhoneNumber": "436-7311",
  "address": "서울특별시 중랑구 망우동 488-14",
  "Latitude": 37.5996769,
  "Longitude": 127.0983246,
  "BuildingName": "세진동물병원"
 },
 {
  "번호": 659,
  "Name": "동물병원",
  "PhoneNumber": "596-1175",
  "address": "서울특별시 서초구 서초동 1690-2번지 지상1층",
  "Latitude": 37.494975,
  "Longitude": 127.0170345,
  "BuildingName": "교대동물병원"
 },
 {
  "번호": 660,
  "Name": "동물병원",
  "PhoneNumber": "2606-1990",
  "address": "서울특별시 양천구 신월동 972-6",
  "Latitude": 37.5205195,
  "Longitude": 126.8349234,
  "BuildingName": "일오삼동물병원"
 },
 {
  "번호": 661,
  "Name": "동물병원",
  "PhoneNumber": "6224-3858",
  "address": "서울특별시 노원구 중계동 525번지 풍림(아) 111-1808",
  "Latitude": 37.6510125,
  "Longitude": 127.0799977,
  "BuildingName": "브라운동물병원"
 },
 {
  "번호": 662,
  "Name": "동물병원",
  "PhoneNumber": "952-6426",
  "address": "서울특별시 노원구 중계동 413-9 두림빌딩 102호",
  "Latitude": 37.6509693,
  "Longitude": 127.0717399,
  "BuildingName": "엘케이동물병원"
 },
 {
  "번호": 663,
  "Name": "동물병원",
  "PhoneNumber": "354-0975",
  "address": "서울특별시 은평구 구산동 1-1번지",
  "Latitude": 37.611152,
  "Longitude": 126.9168036,
  "BuildingName": "로얄동물병원"
 },
 {
  "번호": 664,
  "Name": "동물병원",
  "PhoneNumber": "02-413-7514",
  "address": "서울특별시 송파구 송파동 58-4 레이크 해모로 105호",
  "Latitude": 37.5113603,
  "Longitude": 127.1087957,
  "BuildingName": "호수동물병원"
 },
 {
  "번호": 665,
  "Name": "동물병원",
  "PhoneNumber": "2207-9931",
  "address": "서울특별시 중랑구 면목동 353-25번지",
  "Latitude": 37.5772943,
  "Longitude": 127.0857069,
  "BuildingName": "주연동물병원"
 },
 {
  "번호": 666,
  "Name": "동물병원",
  "PhoneNumber": "02-585-0087",
  "address": "서울특별시 서초구 서초동 1486-2 삼양빌딩",
  "Latitude": 37.4831011,
  "Longitude": 127.0076912,
  "BuildingName": "다니엘동물병원"
 },
 {
  "번호": 667,
  "Name": "동물병원",
  "PhoneNumber": "795-2184",
  "address": "서울특별시 용산구 한남동 653-26번지",
  "Latitude": 37.5335085,
  "Longitude": 127.0016834,
  "BuildingName": "펫토이동물병원"
 },
 {
  "번호": 668,
  "Name": "동물병원",
  "PhoneNumber": "02-960-7501",
  "address": "서울특별시 동대문구 청량리동 400번지",
  "Latitude": 37.5859435,
  "Longitude": 127.0435318,
  "BuildingName": "디아크동물병원"
 },
 {
  "번호": 669,
  "Name": "동물병원",
  "PhoneNumber": "955-2882",
  "address": "서울특별시 도봉구 방학동 731 한화아파트 상가 105호",
  "Latitude": 37.6612909,
  "Longitude": 127.0317101,
  "BuildingName": "유현동물병원"
 },
 {
  "번호": 670,
  "Name": "동물병원",
  "PhoneNumber": "463-3216",
  "address": "서울특별시 광진구 군자동 1-2",
  "Latitude": 37.5553494,
  "Longitude": 127.0781539,
  "BuildingName": "나래동물병원"
 },
 {
  "번호": 671,
  "Name": "동물병원",
  "PhoneNumber": "915-7582",
  "address": "서울특별시 성북구 장위동 64-124번지",
  "Latitude": 37.6111753,
  "Longitude": 127.0563507,
  "BuildingName": "행복한동물병원"
 },
 {
  "번호": 672,
  "Name": "동물병원",
  "PhoneNumber": "306-8575",
  "address": "서울특별시 은평구 증산동 174-6 103호",
  "Latitude": 37.5817999,
  "Longitude": 126.9070441,
  "BuildingName": "한수24시동물병원"
 },
 {
  "번호": 673,
  "Name": "동물병원",
  "PhoneNumber": "02-474-7588",
  "BuildingName": "정동물병원"
 },
 {
  "번호": 675,
  "Name": "동물병원",
  "PhoneNumber": "792-7602",
  "address": "서울특별시 용산구 이태원동 21-1 태광빌딩 1층",
  "Latitude": 37.5310395,
  "Longitude": 126.9958021,
  "BuildingName": "청화종합동물병원"
 },
 {
  "번호": 676,
  "Name": "동물병원",
  "PhoneNumber": "463-7075",
  "address": "서울특별시 광진구 자양동 553-280",
  "Latitude": 37.5358085,
  "Longitude": 127.0660761,
  "BuildingName": "이다종합동물병원"
 },
 {
  "번호": 677,
  "Name": "동물병원",
  "PhoneNumber": "804-0975",
  "address": "서울특별시 금천구 시흥동 909-5번지",
  "Latitude": 37.4516143,
  "Longitude": 126.9071331,
  "BuildingName": "은행나무종합동물병원"
 },
 {
  "번호": 678,
  "Name": "동물병원",
  "PhoneNumber": "02-365-7582",
  "address": "서울특별시 서대문구 북아현동 136-21 e편한세상신촌 4단지",
  "Latitude": 37.558196,
  "Longitude": 126.9558424,
  "BuildingName": "마음을 나누는 동물병원"
 },
 {
  "번호": 679,
  "Name": "동물병원",
  "PhoneNumber": "2666-0370",
  "address": "서울특별시 강서구 방화동 585-1번지 24통8반 대우아파트 204동 306호",
  "Latitude": 37.5677825,
  "Longitude": 126.8096288,
  "BuildingName": "와우동물병원"
 },
 {
  "번호": 680,
  "Name": "동물병원",
  "PhoneNumber": "02-3442-3785",
  "address": "서울특별시 강남구 논현동 181-8 1층",
  "Latitude": 37.5075029,
  "Longitude": 127.0268078,
  "BuildingName": "논현동물병원"
 },
 {
  "번호": 681,
  "Name": "동물병원",
  "PhoneNumber": "02-541-2651",
  "address": "서울특별시 강남구 삼성동 34-3 키스톤빌딩",
  "Latitude": 37.5132146,
  "Longitude": 127.042982,
  "BuildingName": "퍼피즌동물병원"
 },
 {
  "번호": 682,
  "Name": "동물병원",
  "PhoneNumber": "908-7585",
  "address": "서울특별시 노원구 상계동 749-5번지 상계주공4단지아파트",
  "Latitude": 37.6501899999999,
  "Longitude": 127.0626251,
  "BuildingName": "시마동물병원"
 },
 {
  "번호": 683,
  "Name": "동물병원",
  "PhoneNumber": "902-7582",
  "address": "서울특별시 도봉구 쌍문동 88-115 1층",
  "Latitude": 37.6502287,
  "Longitude": 127.0352898,
  "BuildingName": "삼성동물종합병원"
 },
 {
  "번호": 684,
  "Name": "동물병원",
  "PhoneNumber": "455-7570",
  "address": "서울특별시 광진구 광장동 530-39",
  "Latitude": 37.5420969,
  "Longitude": 127.0952129,
  "BuildingName": "쥬라기동물병원"
 },
 {
  "번호": 685,
  "Name": "동물병원",
  "PhoneNumber": "985-7525",
  "address": "서울특별시 강북구 번동 309번지 덕수빌딩 1층",
  "Latitude": 37.6288338,
  "Longitude": 127.0398506,
  "BuildingName": "강북동물병원"
 },
 {
  "번호": 686,
  "Name": "동물병원",
  "PhoneNumber": "736-5834",
  "address": "서울특별시 서대문구 홍제동 90-67",
  "Latitude": 37.5835245,
  "Longitude": 126.9493005,
  "BuildingName": "빛가온동물병원"
 },
 {
  "번호": 687,
  "Name": "동물병원",
  "PhoneNumber": "2681-7585",
  "address": "서울특별시 구로구 개봉동 175-8 청실아파트 상가 211호",
  "Latitude": 37.4954822,
  "Longitude": 126.8597676,
  "BuildingName": "한샘동물병원"
 },
 {
  "번호": 688,
  "Name": "동물병원",
  "PhoneNumber": "02-470-7905",
  "address": "서울특별시 송파구 풍납동 403-9 웅산빌딩",
  "Latitude": 37.5286071,
  "Longitude": 127.1167227,
  "BuildingName": "씨밀레동물병원"
 },
 {
  "번호": 689,
  "Name": "동물병원",
  "PhoneNumber": "990-7588",
  "address": "서울특별시 강북구 번동 471-1",
  "Latitude": 37.640847,
  "Longitude": 127.0327599,
  "BuildingName": "동물을사랑하는사람들"
 },
 {
  "번호": 690,
  "Name": "동물병원",
  "PhoneNumber": "02-415-7114",
  "address": "서울특별시 송파구 송파동 146-6",
  "Latitude": 37.5070054,
  "Longitude": 127.1164996,
  "BuildingName": "송이종합동물병원"
 },
 {
  "번호": 691,
  "Name": "동물병원",
  "PhoneNumber": "2692-8255",
  "address": "서울특별시 양천구 신월동 546-25",
  "Latitude": 37.5175671999999,
  "Longitude": 126.8402789,
  "BuildingName": "파란종합 동물병원"
 },
 {
  "번호": 692,
  "Name": "동물병원",
  "PhoneNumber": "02-2233-1848",
  "address": "서울특별시 성동구 금호동2가 485-1",
  "Latitude": 37.553343,
  "Longitude": 127.0195508,
  "BuildingName": "한빛동물병원"
 },
 {
  "번호": 693,
  "Name": "동물병원",
  "PhoneNumber": "02-384-0075",
  "address": "서울특별시 은평구 갈현동 394-27번지",
  "Latitude": 37.6219815,
  "Longitude": 126.919523,
  "BuildingName": "메디펫동물병원"
 },
 {
  "번호": 694,
  "Name": "동물병원",
  "PhoneNumber": "02-323-7582",
  "address": "서울특별시 마포구 동교동 174-14",
  "Latitude": 37.5580089,
  "Longitude": 126.9280891,
  "BuildingName": "마리동물병원"
 },
 {
  "번호": 695,
  "Name": "동물병원",
  "PhoneNumber": "02-488-8275",
  "address": "서울특별시 강동구 성내동 322-6번지 EMK빌딩",
  "Latitude": 37.532202,
  "Longitude": 127.12151,
  "BuildingName": "박형우동물병원"
 },
 {
  "번호": 696,
  "Name": "동물병원",
  "PhoneNumber": "02-572-9300",
  "address": "서울특별시 강남구 도곡동 180-31번지 1층",
  "Latitude": 37.4864787,
  "Longitude": 127.0451558,
  "BuildingName": "우리집동물병원"
 },
 {
  "번호": 697,
  "Name": "동물병원",
  "PhoneNumber": "2632-8687",
  "address": "서울특별시 영등포구 영등포동7가 64-48번지",
  "Latitude": 37.5243422,
  "Longitude": 126.904246,
  "BuildingName": "서울동물병원"
 },
 {
  "번호": 698,
  "Name": "동물병원",
  "PhoneNumber": "393-6675",
  "address": "서울특별시 서대문구 영천동 299",
  "Latitude": 37.5709242,
  "Longitude": 126.961289,
  "BuildingName": "우리동물병원"
 },
 {
  "번호": 699,
  "Name": "동물병원",
  "PhoneNumber": "02-533-5505",
  "address": "서울특별시 서초구 잠원동 50-5 신사쇼핑센터 102-2호",
  "Latitude": 37.5161592,
  "Longitude": 127.0147093,
  "BuildingName": "이상록동물병원"
 },
 {
  "번호": 700,
  "Name": "동물병원",
  "PhoneNumber": "02-487-7575",
  "address": "서울특별시 강동구 길동 348-5",
  "Latitude": 37.5402022,
  "Longitude": 127.141229,
  "BuildingName": "열린24시동물병원"
 },
 {
  "번호": 701,
  "Name": "동물병원",
  "PhoneNumber": "2060-8673",
  "address": "서울특별시 구로구 개봉동 353-15번지",
  "Latitude": 37.4966578,
  "Longitude": 126.8561423,
  "BuildingName": "굿모닝 동물병원"
 },
 {
  "번호": 702,
  "Name": "동물병원",
  "PhoneNumber": "971-7511",
  "address": "서울특별시 노원구 공릉동 441-152 1층",
  "Latitude": 37.6277024,
  "Longitude": 127.0775641,
  "BuildingName": "수피아동물병원"
 },
 {
  "번호": 703,
  "Name": "동물병원",
  "PhoneNumber": "02-2244-1081",
  "address": "서울특별시 동대문구 전농동 38-24번지",
  "Latitude": 37.5778683,
  "Longitude": 127.0584782,
  "BuildingName": "주주동물병원"
 },
 {
  "번호": 704,
  "Name": "동물병원",
  "PhoneNumber": "02-577-3690",
  "address": "서울특별시 서초구 양재동 377-4",
  "Latitude": 37.4718739,
  "Longitude": 127.0459807,
  "BuildingName": "한 동물병원"
 },
 {
  "번호": 705,
  "Name": "동물병원",
  "PhoneNumber": "02-577-7475",
  "address": "서울특별시 서초구 양재동 257-2",
  "Latitude": 37.4748297,
  "Longitude": 127.0421675,
  "BuildingName": "사랑의동물병원"
 },
 {
  "번호": 706,
  "Name": "동물병원",
  "PhoneNumber": "2619-7533",
  "address": "서울특별시 구로구 고척동 50-95번지",
  "Latitude": 37.5035678,
  "Longitude": 126.8616981,
  "BuildingName": "해피동물병원"
 },
 {
  "번호": 707,
  "Name": "동물병원",
  "PhoneNumber": "02-578-7572",
  "address": "서울특별시 서초구 우면동 66-2 우면세신상가 201호",
  "Latitude": 37.4708489,
  "Longitude": 127.0253763,
  "BuildingName": "우면동물병원"
 },
 {
  "번호": 708,
  "Name": "동물병원",
  "PhoneNumber": "3665-7975",
  "address": "서울특별시 강서구 등촌동 24통7반 우장산롯데캐슬 307동 1003호",
  "Latitude": 37.5555686,
  "Longitude": 126.8484522,
  "BuildingName": "24시아프리카동물메디컬센터"
 },
 {
  "번호": 709,
  "Name": "동물병원",
  "PhoneNumber": "2666-6075",
  "address": "서울특별시 강서구 방화동 53-273번지",
  "Latitude": 37.5836536,
  "Longitude": 126.8180038,
  "BuildingName": "하나동물병원"
 },
 {
  "번호": 710,
  "Name": "동물병원",
  "PhoneNumber": "02-857-7572",
  "address": "서울특별시 관악구 신림동 727-21 1층",
  "Latitude": 37.4742189,
  "Longitude": 126.9168951,
  "BuildingName": "늘푸른동물병원"
 },
 {
  "번호": 711,
  "Name": "동물병원",
  "PhoneNumber": "02-887-7179",
  "address": "서울특별시 관악구 봉천동 464-38번지",
  "Latitude": 37.4868915,
  "Longitude": 126.9488131,
  "BuildingName": "행복한동물병원"
 },
 {
  "번호": 712,
  "Name": "동물병원",
  "PhoneNumber": "02-409-7533",
  "address": "서울특별시 송파구 가락동 175-14 연암빌딩",
  "Latitude": 37.496734,
  "Longitude": 127.1367677,
  "BuildingName": "에버펫 동물병원"
 },
 {
  "번호": 713,
  "Name": "동물병원",
  "PhoneNumber": "2643-7882",
  "address": "서울특별시 양천구 신정동 337-7",
  "Latitude": 37.5082214,
  "Longitude": 126.8650994,
  "BuildingName": "참사랑동물병원"
 },
 {
  "번호": 714,
  "Name": "동물병원",
  "PhoneNumber": "2062-1110",
  "address": "서울특별시 양천구 목동 773-3 106호",
  "Latitude": 37.5335374,
  "Longitude": 126.8694899,
  "BuildingName": "리즈동물병원"
 },
 {
  "번호": 715,
  "Name": "동물병원",
  "PhoneNumber": "02-3142-0008",
  "address": "서울특별시 마포구 망원동 378-3",
  "Latitude": 37.5553902,
  "Longitude": 126.9103142,
  "BuildingName": "동물사랑동물병원"
 },
 {
  "번호": 716,
  "Name": "동물병원",
  "PhoneNumber": "02-586-7501",
  "address": "서울특별시 서초구 서초동 1343-1",
  "Latitude": 37.4875715,
  "Longitude": 127.0259361,
  "BuildingName": "메디펫 동물병원"
 },
 {
  "번호": 717,
  "Name": "동물병원",
  "PhoneNumber": "02-925-3686",
  "address": "서울특별시 동대문구 용두동 732-5번지",
  "Latitude": 37.5805474,
  "Longitude": 127.0267918,
  "BuildingName": "안암동물병원"
 },
 {
  "번호": 718,
  "Name": "동물병원",
  "PhoneNumber": "457-4545",
  "address": "서울특별시 광진구 구의동 68-37",
  "Latitude": 37.5452435,
  "Longitude": 127.0859569,
  "BuildingName": "광진동물의료센터"
 },
 {
  "번호": 719,
  "Name": "동물병원",
  "PhoneNumber": "02-457-4545",
  "address": "서울특별시 광진구 구의동 68-37",
  "Latitude": 37.5452435,
  "Longitude": 127.0859569,
  "BuildingName": "광진동물의료센터"
 },
 {
  "번호": 720,
  "Name": "동물병원",
  "PhoneNumber": "332-2883",
  "address": "서울특별시 서대문구 연희동 89-9번지",
  "Latitude": 37.5691601,
  "Longitude": 126.9320848,
  "BuildingName": "연희동물병원"
 },
 {
  "번호": 721,
  "Name": "동물병원",
  "PhoneNumber": "749-8275",
  "address": "서울특별시 용산구 용산동2가 45-7",
  "Latitude": 37.5417046,
  "Longitude": 126.9873984,
  "BuildingName": "한사랑동물병원"
 },
 {
  "번호": 722,
  "Name": "동물병원",
  "PhoneNumber": "02-3412-0067",
  "address": "서울특별시 강남구 일원동 684 남경빌딩 1층",
  "Latitude": 37.4906406,
  "Longitude": 127.0812097,
  "BuildingName": "서경석동물병원"
 },
 {
  "번호": 723,
  "Name": "동물병원",
  "PhoneNumber": "02-987-7959",
  "address": "서울특별시 강북구 미아동 197-9번지",
  "Latitude": 37.6267413,
  "Longitude": 127.026306,
  "BuildingName": "위즈동물병원"
 },
 {
  "번호": 724,
  "Name": "동물병원",
  "PhoneNumber": "894-3030",
  "address": "서울특별시 금천구 시흥동 837-37",
  "Latitude": 37.4525662,
  "Longitude": 126.9062393,
  "BuildingName": "제일종합동물병원"
 },
 {
  "번호": 725,
  "Name": "동물병원",
  "PhoneNumber": "02-837-8875",
  "address": "서울특별시 관악구 신림동 564-3",
  "Latitude": 37.4811834,
  "Longitude": 126.9095682,
  "BuildingName": "러브펫종합동물병원"
 },
 {
  "번호": 726,
  "Name": "동물병원",
  "PhoneNumber": "02-988-0251",
  "address": "서울특별시 강북구 미아동 48-24번지",
  "Latitude": 37.6111169,
  "Longitude": 127.0337938,
  "BuildingName": "창문동물병원"
 },
 {
  "번호": 727,
  "Name": "동물병원",
  "PhoneNumber": "02-488-3703",
  "BuildingName": "현대종합동물병원"
 },
 {
  "번호": 728,
  "Name": "동물병원",
  "PhoneNumber": "02-427-5685",
  "BuildingName": "해태동물병원"
 },
 {
  "번호": 729,
  "Name": "동물병원",
  "PhoneNumber": "02-472-7343",
  "address": "서울특별시 강동구 길동 336-4",
  "Latitude": 37.5423777,
  "Longitude": 127.141933,
  "BuildingName": "강동동물병원"
 },
 {
  "번호": 730,
  "Name": "동물병원",
  "PhoneNumber": "02-474-5100",
  "address": "서울특별시 강동구 성내동 415-1",
  "Latitude": 37.5299048,
  "Longitude": 127.136593,
  "BuildingName": "둔촌동물병원"
 },
 {
  "번호": 731,
  "Name": "동물병원",
  "PhoneNumber": "02-442-7772",
  "BuildingName": "두루동물병원"
 },
 {
  "번호": 732,
  "Name": "동물병원",
  "PhoneNumber": "2094-8344",
  "address": "서울특별시 중랑구 상봉동 137-7",
  "Latitude": 37.5917255,
  "Longitude": 127.0723692,
  "BuildingName": "서울우유협동조합유우진료소"
 },
 {
  "번호": 733,
  "Name": "동물병원",
  "PhoneNumber": "913-1874",
  "address": "서울특별시 성북구 길음동 1276번지",
  "Latitude": 37.6027723,
  "Longitude": 127.023776,
  "BuildingName": "길음동물병원"
 },
 {
  "번호": 734,
  "Name": "동물병원",
  "PhoneNumber": "402-9119",
  "address": "서울특별시 송파구 오금동 3번지",
  "Latitude": 37.5102176,
  "Longitude": 127.1306807,
  "BuildingName": "준동물병원"
 },
 {
  "번호": 735,
  "Name": "동물병원",
  "PhoneNumber": "02-556-0975",
  "address": "서울특별시 강남구 대치동 898-8번지 1층",
  "Latitude": 37.5017178,
  "Longitude": 127.0505772,
  "BuildingName": "주주동물종합병원"
 },
 {
  "번호": 736,
  "Name": "동물병원",
  "PhoneNumber": "2642-8653",
  "address": "서울특별시 양천구 목동 657-21번지 등촌빌딩",
  "Latitude": 37.5450759,
  "Longitude": 126.8625742,
  "BuildingName": "토론토 동물병원"
 },
 {
  "번호": 737,
  "Name": "동물병원",
  "PhoneNumber": "2697-7576",
  "address": "서울특별시 양천구 신정동 987-3 1층",
  "Latitude": 37.5252692,
  "Longitude": 126.8594648,
  "BuildingName": "신정 동물병원"
 },
 {
  "번호": 738,
  "Name": "동물병원",
  "PhoneNumber": "998-1785",
  "address": "서울특별시 강북구 수유동 266-20",
  "Latitude": 37.6458817,
  "Longitude": 127.0182241,
  "BuildingName": "대형동물병원"
 },
 {
  "번호": 739,
  "Name": "동물병원",
  "PhoneNumber": "02-877-5599",
  "address": "서울특별시 관악구 신림동 395-53",
  "Latitude": 37.4730677,
  "Longitude": 126.932898,
  "BuildingName": "신림종합동물병원"
 },
 {
  "번호": 740,
  "Name": "동물병원",
  "PhoneNumber": "02-488-7510",
  "address": "서울특별시 강동구 천호동 233-145 19통4반",
  "Latitude": 37.5480593,
  "Longitude": 127.1356338,
  "BuildingName": "CH동물병원"
 },
 {
  "번호": 741,
  "Name": "동물병원",
  "PhoneNumber": "02-582-7708",
  "address": "서울특별시 동작구 사당동 321-114번지",
  "Latitude": 37.4831239,
  "Longitude": 126.9758082,
  "BuildingName": "동물은내친구"
 },
 {
  "번호": 742,
  "Name": "동물병원",
  "PhoneNumber": "3473-8274",
  "address": "서울특별시 서초구 방배동 898-3",
  "Latitude": 37.4874641,
  "Longitude": 126.9941277,
  "BuildingName": "내방동물병원"
 },
 {
  "번호": 743,
  "Name": "동물병원",
  "PhoneNumber": "935-7588",
  "address": "서울특별시 노원구 상계동 430-13번지",
  "Latitude": 37.6624675,
  "Longitude": 127.0660687,
  "BuildingName": "한강동물병원"
 },
 {
  "번호": 744,
  "Name": "동물병원",
  "PhoneNumber": "928-7582",
  "address": "서울특별시 성북구 동소문동5가 8-1번지",
  "Latitude": 37.591835,
  "Longitude": 127.0136984,
  "BuildingName": "드림동물병원"
 },
 {
  "번호": 745,
  "Name": "동물병원",
  "PhoneNumber": "02-2297-7582",
  "address": "서울특별시 성동구 행당동 322-100번지",
  "Latitude": 37.5560418,
  "Longitude": 127.0339682,
  "BuildingName": "오렌지동물병원"
 },
 {
  "번호": 746,
  "Name": "동물병원",
  "PhoneNumber": "02-3395-0075",
  "address": "서울특별시 성동구 행당동 346 한진노변상가 110호",
  "Latitude": 37.5558801,
  "Longitude": 127.0292075,
  "BuildingName": "평생피부과동물병원"
 },
 {
  "번호": 747,
  "Name": "동물병원",
  "PhoneNumber": "02-2299-3283",
  "address": "서울특별시 성동구 옥수동 263-1번지",
  "Latitude": 37.543018000000004,
  "Longitude": 127.0131272,
  "BuildingName": "함께하는동물병원"
 },
 {
  "번호": 748,
  "Name": "동물병원",
  "PhoneNumber": "02-400-0075",
  "address": "서울특별시 송파구 문정동 150-2 문정프라자",
  "Latitude": 37.491602,
  "Longitude": 127.1162915,
  "BuildingName": "펫가든동물병원"
 },
 {
  "번호": 749,
  "Name": "동물병원",
  "PhoneNumber": "2636-3992",
  "address": "서울특별시 구로구 신도림동 337번지 신도림1차푸르지오 101동 139호",
  "Latitude": 37.5094204,
  "Longitude": 126.8877437,
  "BuildingName": "신도림동물병원"
 },
 {
  "번호": 750,
  "Name": "동물병원",
  "PhoneNumber": "3663-7584",
  "address": "서울특별시 강서구 가양동 1480-5번지 10통7반 이스타빌1 502호",
  "Latitude": 37.5625886,
  "Longitude": 126.8529818,
  "BuildingName": "해맑은동물병원"
 },
 {
  "번호": 751,
  "Name": "동물병원",
  "PhoneNumber": "534-9773",
  "address": "서울특별시 서초구 방배동 790-27번지",
  "Latitude": 37.4924939,
  "Longitude": 126.9864534,
  "BuildingName": "수동물병원"
 },
 {
  "번호": 752,
  "Name": "동물병원",
  "PhoneNumber": "952-0089",
  "address": "서울특별시 노원구 상계동 2-1번지 부영(아) 109-1903",
  "Latitude": 37.6655913,
  "Longitude": 127.0665443,
  "BuildingName": "참동물병원"
 },
 {
  "번호": 753,
  "Name": "동물병원",
  "PhoneNumber": "719-7070",
  "address": "서울특별시 용산구 용문동 25-36",
  "Latitude": 37.5365398,
  "Longitude": 126.9607317,
  "BuildingName": "원효종합동물병원"
 },
 {
  "번호": 754,
  "Name": "동물병원",
  "PhoneNumber": "793-9230",
  "address": "서울특별시 용산구 한남동 642-4번지",
  "Latitude": 37.5324217,
  "Longitude": 127.0052773,
  "BuildingName": "한남동물병원"
 },
 {
  "번호": 755,
  "Name": "동물병원",
  "PhoneNumber": "3273-0075",
  "address": "서울특별시 용산구 원효로2가 84-10번지 신영빌딩",
  "Latitude": 37.5355938999999,
  "Longitude": 126.9617775,
  "BuildingName": "열린동물종합병원"
 },
 {
  "번호": 756,
  "Name": "동물병원",
  "PhoneNumber": "462-5595",
  "address": "서울특별시 광진구 중곡동 241-34번지",
  "Latitude": 37.5627492,
  "Longitude": 127.0815725,
  "BuildingName": "중곡동물병원"
 },
 {
  "번호": 757,
  "Name": "동물병원",
  "PhoneNumber": "396-5525",
  "address": "서울특별시 서대문구 홍제동 330-54번지",
  "Latitude": 37.5896367,
  "Longitude": 126.942742,
  "BuildingName": "홍제동물병원"
 },
 {
  "번호": 758,
  "Name": "동물병원",
  "PhoneNumber": "355-7931",
  "address": "서울특별시 은평구 신사동 9-34번지",
  "Latitude": 37.6009931,
  "Longitude": 126.9101181,
  "BuildingName": "한마음동물병원"
 },
 {
  "번호": 759,
  "Name": "동물병원",
  "PhoneNumber": "711-4527",
  "address": "서울특별시 용산구 효창동 70-11번지",
  "Latitude": 37.5393178,
  "Longitude": 126.9618868,
  "BuildingName": "효창동물병원"
 },
 {
  "번호": 760,
  "Name": "동물병원",
  "PhoneNumber": "778-7582",
  "address": "서울특별시 용산구 후암동 63-1번지 지상1층",
  "Latitude": 37.5504983,
  "Longitude": 126.9771055,
  "BuildingName": "남산동물병원"
 },
 {
  "번호": 761,
  "Name": "동물병원",
  "PhoneNumber": "749-6750",
  "address": "서울특별시 용산구 보광동 259-1번지 용호빌딩 202호, 203호",
  "Latitude": 37.5283742,
  "Longitude": 126.9992139,
  "BuildingName": "21세기동물병원"
 },
 {
  "번호": 762,
  "Name": "동물병원",
  "PhoneNumber": "2652-7515",
  "address": "서울특별시 강서구 화곡동 772-71번지 신진통상빌딩",
  "Latitude": 37.5347866,
  "Longitude": 126.8632594,
  "BuildingName": "서울플러스종합동물병원"
 },
 {
  "번호": 763,
  "Name": "동물병원",
  "PhoneNumber": "2603-0781",
  "address": "서울특별시 강서구 화곡동 349-23번지 21통2반",
  "Latitude": 37.5330742,
  "Longitude": 126.8446045,
  "BuildingName": "용봉동물병원"
 },
 {
  "번호": 764,
  "Name": "동물병원",
  "PhoneNumber": "3665-5982",
  "address": "서울특별시 강서구 내발산동 655-12",
  "Latitude": 37.5554718,
  "Longitude": 126.8369299,
  "BuildingName": "박동물병원"
 },
 {
  "번호": 765,
  "Name": "동물병원",
  "PhoneNumber": "2608-0973",
  "address": "서울특별시 강서구 화곡동 861-8번지 9통2반",
  "Latitude": 37.5314346,
  "Longitude": 126.8550504,
  "BuildingName": "고득영동물병원"
 },
 {
  "번호": 766,
  "Name": "동물병원",
  "PhoneNumber": "2602-7582",
  "address": "서울특별시 강서구 화곡동 904번지 8통8반 목동신시가지아파트 405동 805호",
  "Latitude": 37.5290233,
  "Longitude": 126.8476919,
  "BuildingName": "우장동물병원"
 },
 {
  "번호": 767,
  "Name": "동물병원",
  "PhoneNumber": "2664-7773",
  "address": "서울특별시 강서구 방화동",
  "Latitude": 37.5759058,
  "Longitude": 126.8135931,
  "BuildingName": "황하동물병원"
 },
 {
  "번호": 768,
  "Name": "동물병원",
  "PhoneNumber": "2691-5900",
  "address": "서울특별시 강서구 화곡동 421-23번지",
  "Latitude": 37.5322189,
  "Longitude": 126.8395421,
  "BuildingName": "강서동물병원"
 },
 {
  "번호": 769,
  "Name": "동물병원",
  "PhoneNumber": "3665-7582",
  "address": "서울특별시 강서구 염창동 244-26번지",
  "Latitude": 37.5530768,
  "Longitude": 126.8698108,
  "BuildingName": "염창제일동물병원"
 },
 {
  "번호": 770,
  "Name": "동물병원",
  "PhoneNumber": "2608-0234",
  "address": "서울특별시 강서구 화곡동 425-1번지 8통6반 청구빌라 301호",
  "Latitude": 37.5305137,
  "Longitude": 126.8411678,
  "BuildingName": "미래동물병원"
 },
 {
  "번호": 771,
  "Name": "동물병원",
  "PhoneNumber": "492-7582",
  "address": "서울특별시 중랑구 망우동 364-27 금란동물병원",
  "Latitude": 37.598422,
  "Longitude": 127.1005678,
  "BuildingName": "금란동물병원"
 },
 {
  "번호": 772,
  "Name": "동물병원",
  "PhoneNumber": "384-7743",
  "address": "서울특별시 은평구 갈현동 462-25번지",
  "Latitude": 37.6153581,
  "Longitude": 126.9178275,
  "BuildingName": "금쪽같은내새끼 동물병원"
 },
 {
  "번호": 773,
  "Name": "동물병원",
  "PhoneNumber": "3491-4748",
  "address": "서울특별시 도봉구 방학동 665-11번지 2통6반 삼익세라믹아파트 105동 503호",
  "Latitude": 37.6627137,
  "Longitude": 127.0340988,
  "BuildingName": "가나동물병원"
 },
 {
  "번호": 774,
  "Name": "동물병원",
  "PhoneNumber": "02-428-7893",
  "address": "서울특별시 강동구 명일동",
  "Latitude": 37.5490445,
  "Longitude": 127.1508229,
  "BuildingName": "사랑이있는동물병원"
 },
 {
  "번호": 775,
  "Name": "동물병원",
  "PhoneNumber": "391-4575",
  "address": "서울특별시 종로구 홍지동 127-7번지 5통5반 지층 3호",
  "Latitude": 37.5988869,
  "Longitude": 126.9602501,
  "BuildingName": "북악동물병원"
 },
 {
  "번호": 776,
  "Name": "동물병원",
  "PhoneNumber": "988-7582",
  "address": "서울특별시 강북구 미아동 812 삼성래미안트리베라아파트",
  "Latitude": 37.6173113,
  "Longitude": 127.0204017,
  "BuildingName": "솔샘동물병원"
 },
 {
  "번호": 777,
  "Name": "동물병원",
  "PhoneNumber": "02-415-7585",
  "address": "서울특별시 송파구 송파동 96-6 창영빌딩",
  "Latitude": 37.5023506,
  "Longitude": 127.1102362,
  "BuildingName": "잠실종합동물병원"
 },
 {
  "번호": 778,
  "Name": "동물병원",
  "PhoneNumber": "02-419-1351",
  "address": "서울특별시 송파구 삼전동 5-3 남관빌딩",
  "Latitude": 37.5054992,
  "Longitude": 127.0893976,
  "BuildingName": "25시동물의료센터"
 },
 {
  "번호": 779,
  "Name": "동물병원",
  "PhoneNumber": "02-816-7582",
  "address": "서울특별시 동작구 노량진동 246-1",
  "Latitude": 37.5117043,
  "Longitude": 126.9390377,
  "BuildingName": "디아크동물종합병원"
 },
 {
  "번호": 780,
  "Name": "동물병원",
  "PhoneNumber": "02-938-1122",
  "address": "서울특별시 노원구 중계동 366-10번지 중원코아빌딩 101호",
  "Latitude": 37.6517762,
  "Longitude": 127.077513,
  "BuildingName": "참사랑동물병원"
 },
 {
  "번호": 781,
  "Name": "동물병원",
  "PhoneNumber": "2256-8275",
  "address": "서울특별시 중구 신당동 844 남산타운",
  "Latitude": 37.5478432,
  "Longitude": 127.0085782,
  "BuildingName": "남산동물병원"
 },
 {
  "번호": 782,
  "Name": "동물병원",
  "PhoneNumber": "02-932-7582",
  "address": "서울특별시 노원구 상계동 71-225번지 23통5반",
  "Latitude": 37.6704298999999,
  "Longitude": 127.0842396,
  "BuildingName": "당고개동물병원"
 },
 {
  "번호": 783,
  "Name": "동물병원",
  "PhoneNumber": "02-488-7463",
  "BuildingName": "쥬라기동물병원"
 },
 {
  "번호": 784,
  "Name": "동물병원",
  "PhoneNumber": "309-8275",
  "address": "서울특별시 서대문구 남가좌동 381 DMC센트레빌 상가 205동",
  "Latitude": 37.5759735,
  "Longitude": 126.9156593,
  "BuildingName": "프란다스동물병원"
 },
 {
  "번호": 785,
  "Name": "동물병원",
  "PhoneNumber": "996-1007",
  "address": "서울특별시 강북구 수유동 279-290번지",
  "Latitude": 37.647754,
  "Longitude": 127.0142602,
  "BuildingName": "애니케어 동물병원 수유점"
 },
 {
  "번호": 786,
  "Name": "동물병원",
  "PhoneNumber": "2645-1475",
  "address": "서울특별시 양천구 목동 613-8번지 혜인빌딩",
  "Latitude": 37.5381704,
  "Longitude": 126.8667579,
  "BuildingName": "혜인종합 동물병원"
 },
 {
  "번호": 787,
  "Name": "동물병원",
  "PhoneNumber": "2649-0774",
  "address": "서울특별시 양천구 목동 805-1",
  "Latitude": 37.5314409,
  "Longitude": 126.8641308,
  "BuildingName": "필동물종합병원"
 },
 {
  "번호": 788,
  "Name": "동물병원",
  "PhoneNumber": "02-449-0101",
  "address": "서울특별시 송파구 오금동 17-2 우일빌딩",
  "Latitude": 37.5094889,
  "Longitude": 127.1272344,
  "BuildingName": "늘푸른동물병원"
 },
 {
  "번호": 789,
  "Name": "동물병원",
  "PhoneNumber": "02-333-8632",
  "address": "서울특별시 서대문구 연희동 88-20번지",
  "Latitude": 37.5692117,
  "Longitude": 126.9330529,
  "BuildingName": "라파엘종합동물병원"
 },
 {
  "번호": 790,
  "Name": "동물병원",
  "PhoneNumber": "999-9110",
  "address": "서울특별시 강북구 수유동 252-199",
  "Latitude": 37.6437664,
  "Longitude": 127.0230329,
  "BuildingName": "현대종합동물병원"
 },
 {
  "번호": 791,
  "Name": "동물병원",
  "PhoneNumber": "02-874-3535",
  "address": "서울특별시 관악구 봉천동 959-9 제이에스빌딩",
  "Latitude": 37.4853671,
  "Longitude": 126.9344023,
  "BuildingName": "양지동물병원"
 },
 {
  "번호": 792,
  "Name": "동물병원",
  "PhoneNumber": "454-9975",
  "address": "서울특별시 광진구 중곡동 161-27번지",
  "Latitude": 37.5593265,
  "Longitude": 127.0809432,
  "BuildingName": "방주종합동물병원"
 },
 {
  "번호": 793,
  "Name": "동물병원",
  "PhoneNumber": "02-406-4814",
  "address": "서울특별시 송파구 거여동 202-180 송파시그니처롯데캐슬",
  "Latitude": 37.4958706,
  "Longitude": 127.1474603,
  "BuildingName": "동물의왕국동물병원"
 },
 {
  "번호": 794,
  "Name": "동물병원",
  "PhoneNumber": "2233-7574",
  "address": "서울특별시 중구 신당동 368-19",
  "Latitude": 37.5536529,
  "Longitude": 127.0096507,
  "BuildingName": "미래지동물의료센터"
 },
 {
  "번호": 795,
  "Name": "동물병원",
  "PhoneNumber": "593-7667",
  "address": "서울특별시 서초구 방배동 811-11 지상1층",
  "Latitude": 37.491709,
  "Longitude": 126.9915,
  "BuildingName": "방배한강동물병원"
 },
 {
  "번호": 796,
  "Name": "동물병원",
  "PhoneNumber": "02-744-9098",
  "address": "서울특별시 종로구 창신동 80-1",
  "Latitude": 37.5749017,
  "Longitude": 127.0155112,
  "BuildingName": "해동물병원"
 },
 {
  "번호": 797,
  "Name": "동물병원",
  "PhoneNumber": "02-6375-0075",
  "address": "서울특별시 마포구 신공덕동 159 신공덕2차삼성래미안",
  "Latitude": 37.5463785,
  "Longitude": 126.9580317,
  "BuildingName": "C.T.종합동물병원"
 },
 {
  "번호": 798,
  "Name": "동물병원",
  "PhoneNumber": "02-335-5232",
  "address": "서울특별시 마포구 상수동 310-1번지",
  "Latitude": 37.547932,
  "Longitude": 126.9227467,
  "BuildingName": "셀레네동물병원"
 },
 {
  "번호": 799,
  "Name": "동물병원",
  "PhoneNumber": "02-822-7574",
  "address": "서울특별시 동작구 상도동 366-24번지",
  "Latitude": 37.5045035,
  "Longitude": 126.937997,
  "BuildingName": "하나사랑동물병원"
 },
 {
  "번호": 800,
  "Name": "동물병원",
  "PhoneNumber": "382-3243",
  "address": "서울특별시 은평구 대조동 224-24번지",
  "Latitude": 37.611362,
  "Longitude": 126.917615,
  "BuildingName": "더독동물병원"
 },
 {
  "번호": 801,
  "Name": "동물병원",
  "PhoneNumber": "3217-1081",
  "address": "서울특별시 서대문구 홍은동 217-30번지 나호",
  "Latitude": 37.591664,
  "Longitude": 126.9409308,
  "BuildingName": "신영동물병원"
 },
 {
  "번호": 802,
  "Name": "동물병원",
  "PhoneNumber": "02-424-3662",
  "address": "서울특별시 송파구 송파동 97-14",
  "Latitude": 37.501568,
  "Longitude": 127.1109861,
  "BuildingName": "송파동물의료센터"
 },
 {
  "번호": 803,
  "Name": "동물병원",
  "PhoneNumber": "849-6509",
  "address": "서울특별시 영등포구 신길동 232-15",
  "Latitude": 37.5072076,
  "Longitude": 126.9112295,
  "BuildingName": "우신종합동물병원"
 },
 {
  "번호": 804,
  "Name": "동물병원",
  "PhoneNumber": "979-8275",
  "address": "서울특별시 노원구 중계동 512번지 시영2단지상가 116호",
  "Latitude": 37.643527,
  "Longitude": 127.0654588,
  "BuildingName": "우리들동물종합병원"
 },
 {
  "번호": 805,
  "Name": "동물병원",
  "PhoneNumber": "493-7582",
  "address": "서울특별시 중랑구 면목동 634-5",
  "Latitude": 37.5799129,
  "Longitude": 127.0877737,
  "BuildingName": "성지동물병원"
 },
 {
  "번호": 806,
  "Name": "동물병원",
  "PhoneNumber": "949-5975",
  "address": "서울특별시 노원구 공릉동 94-6번지 13통7반 301호",
  "Latitude": 37.6223089,
  "Longitude": 127.0886328,
  "BuildingName": "미래동물병원"
 },
 {
  "번호": 807,
  "Name": "동물병원",
  "PhoneNumber": "2686-3939",
  "address": "서울특별시 구로구 개봉동 403-144 2층",
  "Latitude": 37.4890877,
  "Longitude": 126.8564094,
  "BuildingName": "케이나인종합동물병원"
 },
 {
  "번호": 808,
  "Name": "동물병원",
  "PhoneNumber": "2207-0073",
  "address": "서울특별시 중랑구 중화동 305-44 유정빌딩",
  "Latitude": 37.6017662,
  "Longitude": 127.078772,
  "BuildingName": "진정훈동물병원"
 },
 {
  "번호": 809,
  "Name": "동물병원",
  "PhoneNumber": "918-3344",
  "address": "서울특별시 성북구 장위동 8-2 석계역 한일노벨리아시티 210호",
  "Latitude": 37.6135144,
  "Longitude": 127.0611993,
  "BuildingName": "대학동물병원"
 },
 {
  "번호": 810,
  "Name": "동물병원",
  "PhoneNumber": "02-2215-2022",
  "address": "서울특별시 동대문구 장안동 307-3번지",
  "Latitude": 37.5729017,
  "Longitude": 127.0713919,
  "BuildingName": "장평25시동물종합병원"
 },
 {
  "번호": 811,
  "Name": "동물병원",
  "PhoneNumber": "02-474-0117",
  "BuildingName": "다래동물병원"
 },
 {
  "번호": 812,
  "Name": "동물병원",
  "PhoneNumber": "924-4555",
  "address": "서울특별시 성북구 종암동 19-1번지",
  "Latitude": 37.5962071,
  "Longitude": 127.0351652,
  "BuildingName": "강북동물병원"
 },
 {
  "번호": 813,
  "Name": "동물병원",
  "PhoneNumber": "467-3673",
  "address": "서울특별시 광진구 화양동 216",
  "Latitude": 37.5472919,
  "Longitude": 127.0732768,
  "BuildingName": "피카소동물병원"
 },
 {
  "번호": 814,
  "Name": "동물병원",
  "PhoneNumber": "02-545-8575",
  "address": "서울특별시 강남구 논현동 90-6 로이빌딩",
  "Latitude": 37.5155965,
  "Longitude": 127.0350162,
  "BuildingName": "강남25동물병원"
 },
 {
  "번호": 815,
  "Name": "동물병원",
  "PhoneNumber": "02-332-0175",
  "address": "서울특별시 마포구 망원동 386-2 망원 양경회관",
  "Latitude": 37.5548268999999,
  "Longitude": 126.9108418,
  "BuildingName": "망원동물종합병원"
 },
 {
  "번호": 816,
  "Name": "동물병원",
  "PhoneNumber": "928-5599",
  "address": "서울특별시 성북구 보문동2가 49번지",
  "Latitude": 37.5871037,
  "Longitude": 127.0181966,
  "BuildingName": "서울종합동물병원"
 },
 {
  "번호": 817,
  "Name": "동물병원",
  "PhoneNumber": "446-2349",
  "address": "서울특별시 광진구 중곡동 58-18번지",
  "Latitude": 37.5595253,
  "Longitude": 127.0878845,
  "BuildingName": "용마동물병원"
 },
 {
  "번호": 818,
  "Name": "동물병원",
  "PhoneNumber": "3422-0001",
  "address": "서울특별시 중랑구 중화동 11-36번지 삼일시티빌 1층",
  "Latitude": 37.6027153,
  "Longitude": 127.0857175,
  "BuildingName": "신내동물병원"
 },
 {
  "번호": 819,
  "Name": "동물병원",
  "PhoneNumber": "02-3444-7509",
  "address": "서울특별시 서초구 반포동 722-29",
  "Latitude": 37.5087773,
  "Longitude": 127.0218965,
  "BuildingName": "라파엘동물병원"
 },
 {
  "번호": 820,
  "Name": "동물병원",
  "PhoneNumber": "2666-5667",
  "address": "서울특별시 강서구 방화동 259번지 23통8반 대림아파트 208동 801호",
  "Latitude": 37.5711952,
  "Longitude": 126.81711,
  "BuildingName": "SKY동물병원"
 },
 {
  "번호": 821,
  "Name": "동물병원",
  "PhoneNumber": "02-441-8588",
  "address": "서울특별시 강동구 암사동 451-12 5통8반",
  "Latitude": 37.5549198,
  "Longitude": 127.1367208,
  "BuildingName": "가나동물병원"
 },
 {
  "번호": 822,
  "Name": "동물병원",
  "PhoneNumber": "841-0075",
  "address": "서울특별시 영등포구 신길동 95-39번지",
  "Latitude": 37.5136463,
  "Longitude": 126.9198488,
  "BuildingName": "참 동물병원"
 },
 {
  "번호": 823,
  "Name": "동물병원",
  "PhoneNumber": "3391-0075",
  "address": "서울특별시 노원구 상계동 79-145번지 44통4반",
  "Latitude": 37.6634193,
  "Longitude": 127.0762512,
  "BuildingName": "고려동물병원"
 },
 {
  "번호": 824,
  "Name": "동물병원",
  "PhoneNumber": "386-6092",
  "address": "서울특별시 은평구 갈현동 498-3번지",
  "Latitude": 37.613776,
  "Longitude": 126.9123339,
  "BuildingName": "미래동물병원"
 },
 {
  "번호": 825,
  "Name": "동물병원",
  "PhoneNumber": "382-7582",
  "address": "서울특별시 은평구 응암동 74-14번지",
  "Latitude": 37.6010437,
  "Longitude": 126.9307374,
  "BuildingName": "LOVE MY PET 동물병원"
 },
 {
  "번호": 826,
  "Name": "동물병원",
  "PhoneNumber": "929-5496",
  "address": "서울특별시 성북구 동소문동3가 79번지",
  "Latitude": 37.5913962,
  "Longitude": 127.0129723,
  "BuildingName": "나래종합동물병원"
 },
 {
  "번호": 827,
  "Name": "동물병원",
  "PhoneNumber": "435-2275",
  "address": "서울특별시 중랑구 면목동 225-7",
  "Latitude": 37.5915716,
  "Longitude": 127.0869582,
  "BuildingName": "하스펫탈동물병원"
 },
 {
  "번호": 828,
  "Name": "동물병원",
  "PhoneNumber": "02-575-0855",
  "address": "서울특별시 서초구 양재동 2-43 동리빌딩",
  "Latitude": 37.4848793,
  "Longitude": 127.0412712,
  "BuildingName": "레스펫동물병원"
 },
 {
  "번호": 829,
  "Name": "동물병원",
  "PhoneNumber": "02-835-7572",
  "address": "서울특별시 영등포구 신길동 3611번지",
  "Latitude": 37.498649,
  "Longitude": 126.9085657,
  "BuildingName": "신풍동물종합병원"
 },
 {
  "번호": 830,
  "Name": "동물병원",
  "PhoneNumber": "02-325-2026",
  "address": "서울특별시 마포구 합정동 411-18",
  "Latitude": 37.5480959,
  "Longitude": 126.9183855,
  "BuildingName": "홍익동물종합병원"
 },
 {
  "번호": 831,
  "Name": "동물병원",
  "PhoneNumber": "869-7582",
  "address": "서울특별시 구로구 구로동 505-17 유성빌딩",
  "Latitude": 37.5070431,
  "Longitude": 126.8902185,
  "BuildingName": "24시 지구촌 동물메디컬 센터"
 },
 {
  "번호": 832,
  "Name": "동물병원",
  "PhoneNumber": "3494-0075",
  "address": "서울특별시 도봉구 방학동 653-17",
  "Latitude": 37.6690944,
  "Longitude": 127.0432012,
  "BuildingName": "방학동물병원"
 },
 {
  "번호": 833,
  "Name": "동물병원",
  "PhoneNumber": "02-936-0907",
  "address": "서울특별시 노원구 상계동 78번지 15통2반 진로유통조합아파트 1102호",
  "Latitude": 37.6664591,
  "Longitude": 127.0802294,
  "BuildingName": "그린동물병원"
 },
 {
  "번호": 834,
  "Name": "동물병원",
  "PhoneNumber": "02-484-8414",
  "address": "서울특별시 강동구 천호동 397-27 24통1반",
  "Latitude": 37.5417464,
  "Longitude": 127.1304096,
  "BuildingName": "세종동물병원"
 },
 {
  "번호": 835,
  "Name": "동물병원",
  "PhoneNumber": "839-7585",
  "address": "서울특별시 구로구 구로동 309-2 지상1층, 지하1층",
  "Latitude": 37.4893228,
  "Longitude": 126.8916729,
  "BuildingName": "라라동물의료원"
 },
 {
  "번호": 836,
  "Name": "동물병원",
  "PhoneNumber": "02-963-7582",
  "address": "서울특별시 동대문구 청량리동 359번지",
  "Latitude": 37.5845848,
  "Longitude": 127.0440708,
  "BuildingName": "푸른종합동물병원"
 },
 {
  "번호": 837,
  "Name": "동물병원",
  "PhoneNumber": "931-1575",
  "address": "서울특별시 노원구 중계동 450번지",
  "Latitude": 37.6579097,
  "Longitude": 127.0744272,
  "BuildingName": "은마로동물병원"
 },
 {
  "번호": 838,
  "Name": "동물병원",
  "PhoneNumber": "02-967-0877",
  "address": "서울특별시 동대문구 이문동 324-3",
  "Latitude": 37.5940399,
  "Longitude": 127.0588681,
  "BuildingName": "애니케어동물병원"
 },
 {
  "번호": 839,
  "Name": "동물병원",
  "PhoneNumber": "02-424-2955",
  "address": "서울특별시 송파구 삼전동 132-12 신일빌딩",
  "Latitude": 37.5039062,
  "Longitude": 127.0968002,
  "BuildingName": "하트동물메디컬센터"
 },
 {
  "번호": 840,
  "Name": "동물병원",
  "PhoneNumber": "02-484-0075",
  "address": "서울특별시 강동구 길동 151",
  "Latitude": 37.5351249,
  "Longitude": 127.1441422,
  "BuildingName": "길종합동물병원"
 },
 {
  "번호": 841,
  "Name": "동물병원",
  "PhoneNumber": "2695-1231",
  "address": "서울특별시 양천구 신월동 50-5번지",
  "Latitude": 37.5361917,
  "Longitude": 126.8284454,
  "BuildingName": "민병철동물병원"
 },
 {
  "번호": 842,
  "Name": "동물병원",
  "PhoneNumber": "992-0074",
  "address": "서울특별시 도봉구 창동 568-5번지",
  "Latitude": 37.6401894,
  "Longitude": 127.0397903,
  "BuildingName": "한빛동물병원"
 },
 {
  "번호": 843,
  "Name": "동물병원",
  "PhoneNumber": "02-932-6658",
  "address": "서울특별시 노원구 상계동 1110번지 42통7반 두산아파트 111동 1107호",
  "Latitude": 37.6773841,
  "Longitude": 127.0531484,
  "BuildingName": "은빛동물병원"
 },
 {
  "번호": 844,
  "Name": "동물병원",
  "PhoneNumber": "02-306-0158",
  "address": "서울특별시 은평구 응암동 589-12번지 2층",
  "Latitude": 37.5907962,
  "Longitude": 126.9159716,
  "BuildingName": "오거리동물병원"
 },
 {
  "번호": 845,
  "Name": "동물병원",
  "PhoneNumber": "02-537-0075",
  "address": "서울특별시 서초구 반포동 56-1번지",
  "Latitude": 37.5033532,
  "Longitude": 127.0107932,
  "BuildingName": "신반포종합동물병원"
 },
 {
  "번호": 846,
  "Name": "동물병원",
  "PhoneNumber": "02-576-8275",
  "address": "서울특별시 강남구 개포동 1211번지",
  "Latitude": 37.4792626,
  "Longitude": 127.0509253,
  "BuildingName": "자연동물병원"
 },
 {
  "번호": 847,
  "Name": "동물병원",
  "PhoneNumber": "379-7575",
  "address": "서울특별시 종로구 평창동 158-1 글로리아타운",
  "Latitude": 37.6068353,
  "Longitude": 126.9688582,
  "BuildingName": "월드펫동물병원"
 },
 {
  "번호": 848,
  "Name": "동물병원",
  "PhoneNumber": "02-2214-6129",
  "address": "서울특별시 동대문구 답십리동 250-1",
  "Latitude": 37.571804,
  "Longitude": 127.0571017,
  "BuildingName": "그랜드동물병원"
 },
 {
  "번호": 849,
  "Name": "동물병원",
  "PhoneNumber": "3472-8275",
  "address": "서울특별시 서초구 서초동 1332-7",
  "Latitude": 37.4917696,
  "Longitude": 127.0248585,
  "BuildingName": "서이동물병원"
 },
 {
  "번호": 850,
  "Name": "동물병원",
  "PhoneNumber": "2615-5014",
  "address": "서울특별시 구로구 고척동 265-4번지 28통8반",
  "Latitude": 37.5034486,
  "Longitude": 126.8511215,
  "BuildingName": "개봉동물병원"
 },
 {
  "번호": 851,
  "Name": "동물병원",
  "PhoneNumber": "02-586-8275",
  "address": "서울특별시 동작구 사당동 1047-44번지",
  "Latitude": 37.4768285,
  "Longitude": 126.9766537,
  "BuildingName": "사당동물병원"
 },
 {
  "번호": 852,
  "Name": "동물병원",
  "PhoneNumber": "444-7533",
  "address": "서울특별시 광진구 광장동 517-5번지 삼익아파트",
  "Latitude": 37.5417983,
  "Longitude": 127.0961971,
  "BuildingName": "동서울동물병원"
 },
 {
  "번호": 853,
  "Name": "동물병원",
  "PhoneNumber": "02-413-0075",
  "address": "서울특별시 송파구 방이동 226-7 건양빌딩",
  "Latitude": 37.5063344,
  "Longitude": 127.1210391,
  "BuildingName": "가락종합동물병원"
 },
 {
  "번호": 854,
  "Name": "동물병원",
  "PhoneNumber": "991-4304",
  "address": "서울특별시 강북구 수유동 319-12 삼흥연립",
  "Latitude": 37.628224,
  "Longitude": 127.01357,
  "BuildingName": "사랑동물병원"
 },
 {
  "번호": 855,
  "Name": "동물병원",
  "PhoneNumber": "02-743-7582",
  "address": "서울특별시 성북구 성북동1가 115-23",
  "Latitude": 37.5903536,
  "Longitude": 127.0038357,
  "BuildingName": "한사랑동물병원"
 },
 {
  "번호": 856,
  "Name": "동물병원",
  "PhoneNumber": "2686-8008",
  "address": "서울특별시 구로구 오류동 48-1",
  "Latitude": 37.4953685,
  "Longitude": 126.8429291,
  "BuildingName": "금강종합동물병원"
 },
 {
  "번호": 857,
  "Name": "동물병원",
  "address": "서울특별시 성북구 장위동 225-61번지",
  "Latitude": 37.6140034,
  "Longitude": 127.0457026,
  "BuildingName": "큐동물병원"
 },
 {
  "번호": 858,
  "Name": "동물병원",
  "PhoneNumber": "935-0075",
  "address": "서울특별시 노원구 중계동 363번지 대림벽산상가 102호",
  "Latitude": 37.6472756,
  "Longitude": 127.0779151,
  "BuildingName": "25시동물병원"
 },
 {
  "번호": 859,
  "Name": "동물병원",
  "PhoneNumber": "02-2212-5233",
  "address": "서울특별시 동대문구 장안동 186-12번지",
  "Latitude": 37.569603,
  "Longitude": 127.0645339,
  "BuildingName": "뉴월드동물병원"
 },
 {
  "번호": 860,
  "Name": "동물병원",
  "PhoneNumber": "582-2357",
  "address": "서울특별시 서초구 서초동 1603-66",
  "Latitude": 37.4854621,
  "Longitude": 127.0170419,
  "BuildingName": "서초동물병원"
 },
 {
  "번호": 861,
  "Name": "동물병원",
  "PhoneNumber": "02-364-3517",
  "address": "서울특별시 마포구 아현동 331-11",
  "Latitude": 37.5570253,
  "Longitude": 126.9533286,
  "BuildingName": "월드펫동물병원"
 },
 {
  "번호": 862,
  "Name": "동물병원",
  "PhoneNumber": "02-717-7571",
  "address": "서울특별시 마포구 노고산동 1-67",
  "Latitude": 37.5563497,
  "Longitude": 126.9426458,
  "BuildingName": "디엔씨동물병원"
 },
 {
  "번호": 863,
  "Name": "동물병원",
  "PhoneNumber": "457-0292",
  "address": "서울특별시 광진구 구의동 659번지 세림리오빌아파트 제비1-1호",
  "Latitude": 37.5388458,
  "Longitude": 127.0908482,
  "BuildingName": "프라임동물병원"
 },
 {
  "번호": 864,
  "Name": "동물병원",
  "PhoneNumber": "907-1565",
  "address": "서울특별시 강북구 수유동 47-69",
  "Latitude": 37.6348028,
  "Longitude": 127.0226133,
  "BuildingName": "동물병원 위드"
 },
 {
  "번호": 865,
  "Name": "동물병원",
  "PhoneNumber": "02-2244-7479",
  "address": "서울특별시 동대문구 장안동 100-8번지",
  "Latitude": 37.5789151,
  "Longitude": 127.069693,
  "BuildingName": "박철환동물병원"
 },
 {
  "번호": 866,
  "Name": "동물병원",
  "PhoneNumber": "2607-0022",
  "address": "서울특별시 양천구 신월동 444-11",
  "Latitude": 37.5222903,
  "Longitude": 126.8426385,
  "BuildingName": "양천종합동물병원"
 },
 {
  "번호": 867,
  "Name": "동물병원",
  "PhoneNumber": "974-0339",
  "address": "서울특별시 중랑구 묵동 239-76",
  "Latitude": 37.6106647,
  "Longitude": 127.0773901,
  "BuildingName": "홍상희동물병원"
 },
 {
  "번호": 868,
  "Name": "동물병원",
  "PhoneNumber": "02-2202-0075",
  "address": "서울특별시 송파구 잠실동 234-17 성선빌딩",
  "Latitude": 37.5054939,
  "Longitude": 127.0848537,
  "BuildingName": "위드펫종합동물병원"
 },
 {
  "번호": 869,
  "Name": "동물병원",
  "PhoneNumber": "393-0075",
  "address": "서울특별시 서대문구 북아현동 126-12번지",
  "Latitude": 37.5575456,
  "Longitude": 126.9582785,
  "BuildingName": "북아현동물병원"
 },
 {
  "번호": 870,
  "Name": "동물병원",
  "PhoneNumber": "02-582-2186",
  "address": "서울특별시 서초구 방배동 809-1",
  "Latitude": 37.4924385,
  "Longitude": 126.9916538,
  "BuildingName": "남서울동물병원"
 },
 {
  "번호": 871,
  "Name": "동물병원",
  "PhoneNumber": "737-8375",
  "address": "서울특별시 서대문구 홍제동 103-6번지",
  "Latitude": 37.5849066,
  "Longitude": 126.9486556,
  "BuildingName": "한솔동물병원"
 },
 {
  "번호": 872,
  "Name": "동물병원",
  "PhoneNumber": "373-2923",
  "address": "서울특별시 서대문구 홍은동 398-9",
  "Latitude": 37.582045,
  "Longitude": 126.9267082,
  "BuildingName": "백년동물병원"
 },
 {
  "번호": 873,
  "Name": "동물병원",
  "PhoneNumber": "02-429-8822",
  "address": "서울특별시 강동구 상일동 341-2",
  "Latitude": 37.5482554,
  "Longitude": 127.1731039,
  "BuildingName": "GD동물병원"
 },
 {
  "번호": 874,
  "Name": "동물병원",
  "PhoneNumber": "354-4110",
  "address": "서울특별시 은평구 녹번동 117-112번지",
  "Latitude": 37.6080895,
  "Longitude": 126.9317416,
  "BuildingName": "녹번동물병원"
 },
 {
  "번호": 875,
  "Name": "동물병원",
  "PhoneNumber": "388-3008",
  "address": "서울특별시 은평구 신사동 20-24번지",
  "Latitude": 37.5982613,
  "Longitude": 126.9110086,
  "BuildingName": "늘푸른동물병원"
 },
 {
  "번호": 876,
  "Name": "동물병원",
  "PhoneNumber": "435-0166",
  "address": "서울특별시 중랑구 면목동 102-51번지",
  "Latitude": 37.5887963,
  "Longitude": 127.0883709,
  "BuildingName": "엔젤동물병원"
 },
 {
  "번호": 877,
  "Name": "동물병원",
  "PhoneNumber": "02-707-2340",
  "address": "서울특별시 마포구 대흥동 337-41",
  "Latitude": 37.5448433,
  "Longitude": 126.9395126,
  "BuildingName": "용강동물병원"
 },
 {
  "번호": 878,
  "Name": "동물병원",
  "PhoneNumber": "982-8698",
  "address": "서울특별시 강북구 미아동 98-39번지",
  "Latitude": 37.6170265,
  "Longitude": 127.030396,
  "BuildingName": "중앙동물병원"
 },
 {
  "번호": 879,
  "Name": "동물병원",
  "PhoneNumber": "3672-8441",
  "address": "서울특별시 종로구 명륜2가 5-99번지 1통3반 방산빌라 402호",
  "Latitude": 37.5846997,
  "Longitude": 126.9990412,
  "BuildingName": "대학로동물병원"
 },
 {
  "번호": 880,
  "Name": "동물병원",
  "PhoneNumber": "434-5465",
  "address": "서울특별시 중랑구 면목동 353-4번지",
  "Latitude": 37.577025,
  "Longitude": 127.0857524,
  "BuildingName": "보람동물병원"
 },
 {
  "번호": 881,
  "Name": "동물병원",
  "PhoneNumber": "2263-6134",
  "address": "서울특별시 중구 충무로4가 93-1",
  "Latitude": 37.5620602,
  "Longitude": 126.9968918,
  "BuildingName": "대한동물병원"
 },
 {
  "번호": 882,
  "Name": "동물병원",
  "PhoneNumber": "3491-7060",
  "address": "서울특별시 도봉구 방학동 664-11번지 15통5반 101호",
  "Latitude": 37.6637936,
  "Longitude": 127.0346527,
  "BuildingName": "화신종합동물병원"
 },
 {
  "번호": 883,
  "Name": "동물병원",
  "PhoneNumber": "02-333-9558",
  "address": "서울특별시 마포구 서교동 395-44",
  "Latitude": 37.5507521,
  "Longitude": 126.9160661,
  "BuildingName": "뉴욕종합동물병원"
 },
 {
  "번호": 884,
  "Name": "동물병원",
  "PhoneNumber": "593-1045",
  "address": "서울특별시 서초구 잠원동 8-24 크레신타워 1층",
  "Latitude": 37.5180859,
  "Longitude": 127.018502,
  "BuildingName": "유림동물안과병원"
 },
 {
  "번호": 885,
  "Name": "동물병원",
  "PhoneNumber": "304-5553",
  "address": "서울특별시 은평구 응암동 576-25번지",
  "Latitude": 37.5920438,
  "Longitude": 126.9179157,
  "BuildingName": "한얼동물병원"
 },
 {
  "번호": 886,
  "Name": "동물병원",
  "PhoneNumber": "02-837-0837",
  "address": "서울특별시 관악구 신림동 1668-14번지 1층",
  "Latitude": 37.480343,
  "Longitude": 126.9040478,
  "BuildingName": "DS동물병원"
 },
 {
  "번호": 887,
  "Name": "동물병원",
  "PhoneNumber": 226546183,
  "address": "서울특별시 양천구 신정동 294-62번지",
  "Latitude": 37.5184482,
  "Longitude": 126.870692,
  "BuildingName": "노아동물병원"
 },
 {
  "번호": 888,
  "Name": "동물병원",
  "PhoneNumber": "2692-9290",
  "address": "서울특별시 강서구 화곡동 46-236번지",
  "Latitude": 37.545232,
  "Longitude": 126.8473084,
  "BuildingName": "시온동물병원"
 },
 {
  "번호": 889,
  "Name": "동물병원",
  "PhoneNumber": "2278-0075",
  "address": "서울특별시 중구 묵정동 32-1",
  "Latitude": 37.5623708,
  "Longitude": 127.0000055,
  "BuildingName": "황동물병원"
 },
 {
  "번호": 890,
  "Name": "동물병원",
  "PhoneNumber": "992-9414",
  "address": "서울특별시 도봉구 창동 635-42번지 20통1반 건영캐스빌아파트 101동 1201호",
  "Latitude": 37.6414155,
  "Longitude": 127.0339619,
  "BuildingName": "신창동물병원"
 },
 {
  "번호": 891,
  "Name": "동물병원",
  "PhoneNumber": "973-5959",
  "address": "서울특별시 노원구 중계동 503번지 시영1단지B상가 118호",
  "Latitude": 37.644231,
  "Longitude": 127.0634009,
  "BuildingName": "롯데동물병원"
 },
 {
  "번호": 892,
  "Name": "동물병원",
  "PhoneNumber": "02-443-8973",
  "address": "서울특별시 송파구 오금동 120-7",
  "Latitude": 37.5036903,
  "Longitude": 127.1386893,
  "BuildingName": "김민재동물병원"
 },
 {
  "번호": 893,
  "Name": "동물병원",
  "PhoneNumber": "307-4633",
  "address": "서울특별시 서대문구 북가좌동 308-1번지",
  "Latitude": 37.5800307,
  "Longitude": 126.9111486,
  "BuildingName": "가좌동물병원"
 },
 {
  "번호": 894,
  "Name": "동물병원",
  "PhoneNumber": "02-2651-9953",
  "address": "서울특별시 양천구 신정동 1020-17",
  "Latitude": 37.5206265,
  "Longitude": 126.8601366,
  "BuildingName": "해성동물병원"
 },
 {
  "번호": 895,
  "Name": "동물병원",
  "PhoneNumber": "851-1368",
  "address": "서울특별시 구로구 구로동 152-6",
  "Latitude": 37.4908354,
  "Longitude": 126.8939115,
  "BuildingName": "사랑동물병원"
 },
 {
  "번호": 896,
  "Name": "동물병원",
  "PhoneNumber": "02-443-8083",
  "address": "서울특별시 송파구 거여동 133-77 흥일빌딩",
  "Latitude": 37.4980378,
  "Longitude": 127.1461353,
  "BuildingName": "오주동물병원"
 },
 {
  "번호": 897,
  "Name": "동물병원",
  "PhoneNumber": "02-414-0075",
  "address": "서울특별시 송파구 방이동 124-8 남양빌딩",
  "Latitude": 37.50814,
  "Longitude": 127.1166612,
  "BuildingName": "페토피아종합동물병원"
 },
 {
  "번호": 898,
  "Name": "동물병원",
  "PhoneNumber": "2619-0888",
  "address": "서울특별시 구로구 개봉동 403-138",
  "Latitude": 37.4901855,
  "Longitude": 126.8563021,
  "BuildingName": "개명동물병원"
 },
 {
  "번호": 899,
  "Name": "동물병원",
  "PhoneNumber": "989-9552",
  "address": "서울특별시 강북구 미아동 734-258 백운M빌딩",
  "Latitude": 37.6208413,
  "Longitude": 127.0209561,
  "BuildingName": "삼양동물병원"
 },
 {
  "번호": 900,
  "Name": "동물병원",
  "PhoneNumber": "2237-3366",
  "address": "서울특별시 중구 신당동 336-3 명덕빌딩",
  "Latitude": 37.5592923,
  "Longitude": 127.0128412,
  "BuildingName": "바우미우동물병원"
 },
 {
  "번호": 901,
  "Name": "동물병원",
  "PhoneNumber": "973-1953",
  "address": "서울특별시 중랑구 묵동 175-2 3층",
  "Latitude": 37.6125956,
  "Longitude": 127.0775795,
  "BuildingName": "태능동물병원"
 },
 {
  "번호": 902,
  "Name": "동물병원",
  "PhoneNumber": "02-3426-5079",
  "address": "서울특별시 강동구 암사동 503-22 내호빌딩",
  "Latitude": 37.5519837,
  "Longitude": 127.1279275,
  "BuildingName": "암사동물병원"
 },
 {
  "번호": 903,
  "Name": "동물병원",
  "PhoneNumber": "02-889-0575",
  "address": "서울특별시 관악구 봉천동 923-23",
  "Latitude": 37.4823748,
  "Longitude": 126.9441807,
  "BuildingName": "형제동물의료센터"
 },
 {
  "번호": 904,
  "Name": "동물병원",
  "PhoneNumber": "02-401-0075",
  "address": "서울특별시 송파구 거여동 562-4",
  "Latitude": 37.4929934,
  "Longitude": 127.1438995,
  "BuildingName": "노아동물병원"
 },
 {
  "번호": 905,
  "Name": "동물병원",
  "PhoneNumber": "02-414-7588",
  "address": "서울특별시 송파구 잠실동 175-12 올림픽타워 101호",
  "Latitude": 37.5114271,
  "Longitude": 127.0805129,
  "BuildingName": "희망종합동물병원"
 },
 {
  "번호": 906,
  "Name": "동물병원",
  "PhoneNumber": "02-332-7984",
  "address": "서울특별시 마포구 망원동 415-32번지",
  "Latitude": 37.5565811,
  "Longitude": 126.9045483,
  "BuildingName": "서교동물병원"
 },
 {
  "번호": 907,
  "Name": "동물병원",
  "PhoneNumber": "02-402-5746",
  "address": "서울특별시 송파구 가락동 190-6 무영빌딩",
  "Latitude": 37.494233,
  "Longitude": 127.133072,
  "BuildingName": "영국동물병원"
 },
 {
  "번호": 908,
  "Name": "동물병원",
  "PhoneNumber": "02-543-4037",
  "address": "서울특별시 강남구 논현동 95-16번지 논현빌딩",
  "Latitude": 37.5164561,
  "Longitude": 127.0318878,
  "BuildingName": "청담동물병원"
 },
 {
  "번호": 909,
  "Name": "동물병원",
  "PhoneNumber": "2274-8558",
  "address": "서울특별시 중구 필동2가 53",
  "Latitude": 37.5616278,
  "Longitude": 126.9968561,
  "BuildingName": "윤신근박사동물병원"
 },
 {
  "번호": 910,
  "Name": "동물병원",
  "PhoneNumber": "900-9929",
  "address": "서울특별시 도봉구 쌍문동 356번지 12통7반 삼익빌라 101동 403호",
  "Latitude": 37.6490398,
  "Longitude": 127.0257058,
  "BuildingName": "퓨리나동물병원"
 },
 {
  "번호": 911,
  "Name": "동물병원",
  "PhoneNumber": "02-872-7609",
  "address": "서울특별시 관악구 신림동 409-165번지",
  "Latitude": 37.4782408,
  "Longitude": 126.9318557,
  "BuildingName": "한성동물병원"
 },
 {
  "번호": 912,
  "Name": "동물병원",
  "PhoneNumber": "02-404-6123",
  "address": "서울특별시 송파구 오금동 39-1",
  "Latitude": 37.5064674,
  "Longitude": 127.1292741,
  "BuildingName": "이재풍동물병원"
 },
 {
  "번호": 913,
  "Name": "동물병원",
  "PhoneNumber": "02-2244-7755",
  "address": "서울특별시 동대문구 휘경동 34-48번지",
  "Latitude": 37.5911029,
  "Longitude": 127.0665156,
  "BuildingName": "심재웅동물병원"
 },
 {
  "번호": 914,
  "Name": "동물병원",
  "PhoneNumber": "356-1656",
  "address": "서울특별시 은평구 불광동 274-10번지",
  "Latitude": 37.6113209,
  "Longitude": 126.9297816,
  "BuildingName": "불광동물병원"
 },
 {
  "번호": 915,
  "Name": "동물병원",
  "PhoneNumber": "2642-9159",
  "address": "서울특별시 양천구 목동 657-16",
  "Latitude": 37.5440715,
  "Longitude": 126.8624456,
  "BuildingName": "강현림 종합동물병원"
 },
 {
  "번호": 916,
  "Name": "동물병원",
  "PhoneNumber": "2693-8883",
  "address": "서울특별시 양천구 신월동 501-12",
  "Latitude": 37.5225681,
  "Longitude": 126.8514082,
  "BuildingName": "우신동물병원"
 },
 {
  "번호": 917,
  "Name": "동물병원",
  "PhoneNumber": "833-0309",
  "address": "서울특별시 영등포구 신길동 628",
  "Latitude": 37.5014322,
  "Longitude": 126.9204286,
  "BuildingName": "대방동물병원"
 },
 {
  "번호": 918,
  "Name": "동물병원",
  "PhoneNumber": "357-8538",
  "address": "서울특별시 은평구 갈현동 394-19번지",
  "Latitude": 37.6213797,
  "Longitude": 126.9195683,
  "BuildingName": "김정복동물병원"
 },
 {
  "번호": 919,
  "Name": "동물병원",
  "PhoneNumber": "02-885-2130",
  "address": "서울특별시 관악구 봉천동 971-14번지 1층",
  "Latitude": 37.4895676999999,
  "Longitude": 126.9283664,
  "BuildingName": "보라매동물병원"
 },
 {
  "번호": 920,
  "Name": "동물병원",
  "PhoneNumber": "02-336-3929",
  "address": "서울특별시 마포구 노고산동 56-7",
  "Latitude": 37.5542323,
  "Longitude": 126.9342141,
  "BuildingName": "서진동물병원"
 },
 {
  "번호": 921,
  "Name": "동물병원",
  "PhoneNumber": "2612-3232",
  "address": "서울특별시 구로구 오류동 33-1 예성라온팰리스 103동 101호",
  "Latitude": 37.4972632,
  "Longitude": 126.8472065,
  "BuildingName": "오류동물병원"
 },
 {
  "번호": 922,
  "Name": "동물병원",
  "PhoneNumber": "387-6920",
  "address": "서울특별시 은평구 응암동 119-17번지",
  "Latitude": 37.5952638,
  "Longitude": 126.918343,
  "BuildingName": "응암동물병원"
 }
]