[
 {
  "번호": 1,
  "Name": "동물병원",
  "address": "서울특별시 송파구 삼전동 22-2 잠실레이크타워",
  "Latitude": 37.5070755,
  "Longitude": 127.0924728,
  "BuildingName": "스무살의꿈 동물병원"
 },
 {
  "번호": 2,
  "Name": "동물병원",
  "PhoneNumber": "02-6978-9296",
  "address": "서울특별시 서초구 원지동 379",
  "Latitude": 37.4442443,
  "Longitude": 127.0564277,
  "BuildingName": "나비셀 동물의료센터"
 },
 {
  "번호": 3,
  "Name": "동물병원",
  "PhoneNumber": "02-439-8300",
  "address": "서울특별시 중랑구 면목동 497-7",
  "Latitude": 37.5823489,
  "Longitude": 127.0882923,
  "BuildingName": "혜원동물병원"
 },
 {
  "번호": 4,
  "Name": "동물병원",
  "PhoneNumber": "02-784-7588",
  "address": "서울특별시 영등포구 여의도동 41-1 대교B상가 202호",
  "Latitude": 37.5232129,
  "Longitude": 126.933086,
  "BuildingName": "헬로우동물병원 여의도점"
 },
 {
  "번호": 5,
  "Name": "동물병원",
  "PhoneNumber": "02-6479-7582",
  "address": "서울특별시 송파구 석촌동 251-4 푸른바둑교실",
  "Latitude": 37.5026828,
  "Longitude": 127.0976542,
  "BuildingName": "동물병원 유피"
 },
 {
  "번호": 6,
  "Name": "동물병원",
  "address": "서울특별시 송파구 잠실동 175-6 J타워",
  "Latitude": 37.5115663,
  "Longitude": 127.0790214,
  "BuildingName": "ONAMC"
 },
 {
  "번호": 7,
  "Name": "동물병원",
  "PhoneNumber": "02-356-7547",
  "address": "서울특별시 은평구 역촌동 22-48",
  "Latitude": 37.6055793,
  "Longitude": 126.9158431,
  "BuildingName": "진솔동물병원"
 },
 {
  "번호": 8,
  "Name": "동물병원",
  "PhoneNumber": "02-6953-0475",
  "address": "서울특별시 동작구 흑석동 332 이랜드해가든",
  "Latitude": 37.5066658,
  "Longitude": 126.9621884,
  "BuildingName": "스무해 동물병원"
 },
 {
  "번호": 9,
  "Name": "동물병원",
  "PhoneNumber": "02-358-1591",
  "address": "서울특별시 은평구 갈현동 431-5",
  "Latitude": 37.6196405,
  "Longitude": 126.9177319,
  "BuildingName": "도그원동물의료센터"
 },
 {
  "번호": 10,
  "Name": "동물병원",
  "PhoneNumber": "02-545-8875",
  "address": "서울특별시 강남구 청담동 125-14 RNF537",
  "Latitude": 37.5251955,
  "Longitude": 127.052372,
  "BuildingName": "청담 고운 피부과 동물병원"
 },
 {
  "번호": 11,
  "Name": "동물병원",
  "address": "서울특별시 강동구 상일동 226",
  "Latitude": 37.5508582,
  "Longitude": 127.1723767,
  "BuildingName": "상일 쓰담쓰담 동물병원"
 },
 {
  "번호": 12,
  "Name": "동물병원",
  "PhoneNumber": "02-921-2413",
  "address": "서울특별시 동대문구 용두동 726-1",
  "Latitude": 37.5821511,
  "Longitude": 127.0293568,
  "BuildingName": "서울동물복지지원센터 동대문 동물병원"
 },
 {
  "번호": 13,
  "Name": "동물병원",
  "PhoneNumber": "02-6956-5259",
  "address": "서울특별시 송파구 오금동 1 홍일빌딩",
  "Latitude": 37.5110443,
  "Longitude": 127.1282342,
  "BuildingName": "올림픽동물의료센터"
 },
 {
  "번호": 14,
  "Name": "동물병원",
  "address": "서울특별시 강남구 논현동 10-5 402호",
  "Latitude": 37.5176032,
  "Longitude": 127.0256481,
  "BuildingName": "The Ark(디아크)"
 },
 {
  "번호": 15,
  "Name": "동물병원",
  "PhoneNumber": "02)6953-7576",
  "address": "서울특별시 양천구 목동 807-1",
  "Latitude": 37.5307466,
  "Longitude": 126.8642653,
  "BuildingName": "24시 로운동물의료센터"
 },
 {
  "번호": 16,
  "Name": "동물병원",
  "PhoneNumber": "02-302-7502",
  "address": "서울특별시 서대문구 홍은동 400-1 1층 우측상가",
  "Latitude": 37.5825801,
  "Longitude": 126.9255531,
  "BuildingName": "장승준동물치과병원"
 },
 {
  "번호": 17,
  "Name": "동물병원",
  "PhoneNumber": "02-304-7772",
  "address": "서울특별시 은평구 수색동 341-6",
  "Latitude": 37.5857274,
  "Longitude": 126.8928973,
  "BuildingName": "수색동물병원"
 },
 {
  "번호": 18,
  "Name": "동물병원",
  "PhoneNumber": "02-423-2088",
  "address": "서울특별시 송파구 석촌동 235-2 금산빌딩",
  "Latitude": 37.5024059,
  "Longitude": 127.0993484,
  "BuildingName": "한걸음더 재활한방 동물병원"
 },
 {
  "번호": 19,
  "Name": "동물병원",
  "PhoneNumber": "02-762-7582",
  "address": "서울특별시 종로구 혜화동 53-11 2층",
  "Latitude": 37.5868304,
  "Longitude": 127.0016898,
  "BuildingName": "뉴욕동물병원"
 },
 {
  "번호": 20,
  "Name": "동물병원",
  "PhoneNumber": "02-419-5959",
  "address": "서울특별시 송파구 석촌동 24-11 석촌호수 나인파크 A",
  "Latitude": 37.5062527,
  "Longitude": 127.0990725,
  "BuildingName": "석촌호수동물병원"
 },
 {
  "번호": 21,
  "Name": "동물병원",
  "PhoneNumber": "02-3663-6575",
  "address": "서울특별시 강서구 등촌동 639-11 홈플러스강서점앤본사사옥",
  "Latitude": 37.558418,
  "Longitude": 126.854838,
  "BuildingName": "웰니스동물병원"
 },
 {
  "번호": 22,
  "Name": "동물병원",
  "PhoneNumber": "02-6207-5551",
  "address": "서울특별시 강남구 개포동 1283 개포자이르네",
  "Latitude": 37.4784719,
  "Longitude": 127.0553589,
  "BuildingName": "헤이든동물병원"
 },
 {
  "번호": 23,
  "Name": "동물병원",
  "PhoneNumber": "02-6952-3676",
  "address": "서울특별시 강서구 가양동 1458 가양골프장",
  "Latitude": 37.5705874,
  "Longitude": 126.842066,
  "BuildingName": "보타닉동물병원"
 },
 {
  "번호": 24,
  "Name": "동물병원",
  "PhoneNumber": "070-8660-0936",
  "address": "서울특별시 중랑구 면목동 146-75",
  "Latitude": 37.5875118,
  "Longitude": 127.0802442,
  "BuildingName": "로얄동물외과수술센터"
 },
 {
  "번호": 25,
  "Name": "동물병원",
  "address": "서울특별시 영등포구 신길동 362-22",
  "Latitude": 37.506696,
  "Longitude": 126.9019332,
  "BuildingName": "신길S동물의료센터"
 },
 {
  "번호": 26,
  "Name": "동물병원",
  "PhoneNumber": "02-6953-7599",
  "address": "서울특별시 송파구 방이동 180-3 올림픽타워빌",
  "Latitude": 37.5151269,
  "Longitude": 127.1155687,
  "BuildingName": "바로슬동물병원"
 },
 {
  "번호": 27,
  "Name": "동물병원",
  "PhoneNumber": "02-540-7522",
  "address": "서울특별시 강남구 신사동 627-21 3층",
  "Latitude": 37.5229931,
  "Longitude": 127.0328786,
  "BuildingName": "케어덴 동물치과&내과병원"
 },
 {
  "번호": 28,
  "Name": "동물병원",
  "PhoneNumber": "999-7582",
  "address": "서울특별시 도봉구 쌍문동 474-4",
  "Latitude": 37.6531846,
  "Longitude": 127.0171099,
  "BuildingName": "동물병원 비아츠"
 },
 {
  "번호": 29,
  "Name": "동물병원",
  "PhoneNumber": "02)2062-7982",
  "address": "서울특별시 양천구 목동 917-6 중소기업유통센터(행복한백화점)",
  "Latitude": 37.5291473,
  "Longitude": 126.8760986,
  "BuildingName": "펫사랑동물병원"
 },
 {
  "번호": 30,
  "Name": "동물병원",
  "PhoneNumber": "02-904-1004",
  "address": "서울특별시 도봉구 창동 715-1",
  "Latitude": 37.6562308,
  "Longitude": 127.0397648,
  "BuildingName": "24시 딜라이트 동물의료센터"
 },
 {
  "번호": 31,
  "Name": "동물병원",
  "PhoneNumber": "02-2135-5611",
  "address": "서울특별시 강서구 마곡동 800-5",
  "Latitude": 37.5586285,
  "Longitude": 126.8327075,
  "BuildingName": "율동물의료센터"
 },
 {
  "번호": 32,
  "Name": "동물병원",
  "address": "서울특별시 노원구 중계동 506 브라운스톤중계",
  "Latitude": 37.6399359,
  "Longitude": 127.0642574,
  "BuildingName": "베리굿동물병원"
 },
 {
  "번호": 33,
  "Name": "동물병원",
  "address": "서울특별시 영등포구 문래동3가 77-45",
  "Latitude": 37.5184831,
  "Longitude": 126.8893503,
  "BuildingName": "김앤정동물병원"
 },
 {
  "번호": 34,
  "Name": "동물병원",
  "address": "서울특별시 송파구 방이동 108-7",
  "Latitude": 37.510883,
  "Longitude": 127.1114953,
  "BuildingName": "샤인아이안과동물병원"
 },
 {
  "번호": 35,
  "Name": "동물병원",
  "PhoneNumber": "070-8660-0904",
  "address": "서울특별시 중랑구 면목동 146-75",
  "Latitude": 37.5875118,
  "Longitude": 127.0802442,
  "BuildingName": "로얄동물메디컬센터 본원"
 },
 {
  "번호": 36,
  "Name": "동물병원",
  "PhoneNumber": "02-2650-8275",
  "address": "서울특별시 양천구 신정동 321-6 센트럴프라자 203호",
  "Latitude": 37.5174938,
  "Longitude": 126.8654977,
  "BuildingName": "공원옆동물의료센터"
 },
 {
  "번호": 37,
  "Name": "동물병원",
  "address": "서울특별시 용산구 한강로3가 98",
  "Latitude": 37.5276547,
  "Longitude": 126.9622041,
  "BuildingName": "에스동물병원"
 },
 {
  "번호": 38,
  "Name": "동물병원",
  "PhoneNumber": "02-3427-6419",
  "address": "서울특별시 강동구 고덕동 191-3",
  "Latitude": 37.5585083,
  "Longitude": 127.1688145,
  "BuildingName": "피카소동물병원"
 },
 {
  "번호": 39,
  "Name": "동물병원",
  "PhoneNumber": "02-2038-8877",
  "address": "서울특별시 양천구 신정동 319 우림필유 102호",
  "Latitude": 37.520906,
  "Longitude": 126.8690513,
  "BuildingName": "상상동물병원"
 },
 {
  "번호": 40,
  "Name": "동물병원",
  "PhoneNumber": "02-2237-7582",
  "address": "서울특별시 중구 신당동 844 남산타운",
  "Latitude": 37.5478432,
  "Longitude": 127.0085782,
  "BuildingName": "힐스타운 동물병원"
 },
 {
  "번호": 41,
  "Name": "동물병원",
  "address": "서울특별시 강남구 청담동 100-17 502호",
  "Latitude": 37.5265497,
  "Longitude": 127.0461088,
  "BuildingName": "라퓨클레르 동물피부클리닉"
 },
 {
  "번호": 42,
  "Name": "동물병원",
  "PhoneNumber": "02-511-7522",
  "address": "서울특별시 강남구 청담동 46 베디베로스퀘어 2층",
  "Latitude": 37.5194404,
  "Longitude": 127.0490303,
  "BuildingName": "VIP 반려동물 암센터"
 },
 {
  "번호": 43,
  "Name": "동물병원",
  "PhoneNumber": 27925455,
  "address": "서울특별시 용산구 이촌동 300-23 한강맨션",
  "Latitude": 37.5182907,
  "Longitude": 126.9759433,
  "BuildingName": "이상윤동물병원"
 },
 {
  "번호": 44,
  "Name": "동물병원",
  "PhoneNumber": "02-2690-9990",
  "address": "서울특별시 강서구 화곡동 1026-12",
  "Latitude": 37.5445288,
  "Longitude": 126.8380418,
  "BuildingName": "나음동물의료센터"
 },
 {
  "번호": 45,
  "Name": "동물병원",
  "PhoneNumber": "02-2282-0119",
  "address": "서울특별시 성동구 금호동1가 526",
  "Latitude": 37.5541487,
  "Longitude": 127.0208712,
  "BuildingName": "조형선외과동물병원"
 },
 {
  "번호": 46,
  "Name": "동물병원",
  "PhoneNumber": "02-6953-7502",
  "address": "서울특별시 송파구 삼전동 28-2",
  "Latitude": 37.5037618,
  "Longitude": 127.0878801,
  "BuildingName": "리베동물메디컬센터"
 },
 {
  "번호": 47,
  "Name": "동물병원",
  "address": "서울특별시 강동구 둔촌동 618-13",
  "Latitude": 37.5329049,
  "Longitude": 127.1466835,
  "BuildingName": "힐동물병원"
 },
 {
  "번호": 48,
  "Name": "동물병원",
  "PhoneNumber": "02-441-2202",
  "address": "서울특별시 강동구 명일동 46-2 고덕역 효성해링턴 타워 더퍼스트 123호",
  "Latitude": 37.554732,
  "Longitude": 127.154625,
  "BuildingName": "아이안 동물의료센터"
 },
 {
  "번호": 50,
  "Name": "동물병원",
  "PhoneNumber": "02-521-0525",
  "address": "서울특별시 서초구 서초동 1600-11 서초레몬 201호",
  "Latitude": 37.4857398,
  "Longitude": 127.0153848,
  "BuildingName": "시니어 동물병원"
 },
 {
  "번호": 51,
  "Name": "동물병원",
  "PhoneNumber": "02-478-2208",
  "address": "서울특별시 강동구 길동 402-10",
  "Latitude": 37.5354082,
  "Longitude": 127.1444824,
  "BuildingName": "양지가축동물병원"
 },
 {
  "번호": 52,
  "Name": "동물병원",
  "PhoneNumber": "02-588-8661",
  "address": "서울특별시 서초구 방배동 444-15",
  "Latitude": 37.4782249,
  "Longitude": 126.9820813,
  "BuildingName": "동편동물혈액검진센터"
 },
 {
  "번호": 53,
  "Name": "동물병원",
  "PhoneNumber": 23069990,
  "address": "서울특별시 은평구 증산동 213-20 DMC센트럴자이 401동 상가 120, 130호",
  "Latitude": 37.5798218,
  "Longitude": 126.9016589,
  "BuildingName": "정든동물병원"
 },
 {
  "번호": 54,
  "Name": "동물병원",
  "address": "서울특별시 은평구 응암동 107-19",
  "Latitude": 37.5963263,
  "Longitude": 126.9197022,
  "BuildingName": "서울은내과동물병원"
 },
 {
  "번호": 55,
  "Name": "동물병원",
  "PhoneNumber": 226987582,
  "address": "서울특별시 양천구 신월동 602-1",
  "Latitude": 37.5205069999999,
  "Longitude": 126.8453872,
  "BuildingName": "24시월드펫동물메디컬센터"
 },
 {
  "번호": 56,
  "Name": "동물병원",
  "PhoneNumber": "02-448-6400",
  "address": "서울특별시 송파구 거여동 605-4",
  "Latitude": 37.4854629,
  "Longitude": 127.1424636,
  "BuildingName": "24시 스탠다드 동물의료센터"
 },
 {
  "번호": 57,
  "Name": "동물병원",
  "PhoneNumber": "02-6949-2475",
  "address": "서울특별시 강동구 성내동 549-1 씨네월드",
  "Latitude": 37.5285304,
  "Longitude": 127.1251485,
  "BuildingName": "더파크동물의료센터"
 },
 {
  "번호": 58,
  "Name": "동물병원",
  "PhoneNumber": "02-2039-8900",
  "address": "서울특별시 강북구 번동 411-8 해솔빌딩 1층 102호, B1층 102호",
  "Latitude": 37.6351964,
  "Longitude": 127.0285319,
  "BuildingName": "마인동물의료센터"
 },
 {
  "번호": 59,
  "Name": "동물병원",
  "PhoneNumber": "02-6953-7587",
  "address": "서울특별시 송파구 잠실동 27 잠실주공아파트",
  "Latitude": 37.5152448,
  "Longitude": 127.0948683,
  "BuildingName": "잠실동물병원"
 },
 {
  "번호": 60,
  "Name": "동물병원",
  "PhoneNumber": "02-515-8575",
  "address": "서울특별시 강남구 논현동 149-6",
  "Latitude": 37.5107907,
  "Longitude": 127.0278621,
  "BuildingName": "순수동물병원"
 },
 {
  "번호": 61,
  "Name": "동물병원",
  "address": "서울특별시 종로구 숭인동 20-138 지1층",
  "Latitude": 37.5805368,
  "Longitude": 127.01722,
  "BuildingName": "폴라동물병원"
 },
 {
  "번호": 62,
  "Name": "동물병원",
  "address": "서울특별시 강서구 화곡동 1060-30 남서울수영장",
  "Latitude": 37.5435074,
  "Longitude": 126.8428723,
  "BuildingName": "24시연동물의료센터"
 },
 {
  "번호": 63,
  "Name": "동물병원",
  "PhoneNumber": "02-529-7577",
  "address": "서울특별시 강남구 개포동 1191-4 지수빌딩",
  "Latitude": 37.4729678,
  "Longitude": 127.0498457,
  "BuildingName": "위드펫동물병원"
 },
 {
  "번호": 64,
  "Name": "동물병원",
  "PhoneNumber": "02-867-7776",
  "address": "서울특별시 금천구 시흥동 837",
  "Latitude": 37.4536287,
  "Longitude": 126.9063447,
  "BuildingName": "허브동물병원"
 },
 {
  "번호": 65,
  "Name": "동물병원",
  "PhoneNumber": "900-7555",
  "address": "서울특별시 도봉구 쌍문동 215-1",
  "Latitude": 37.6585049,
  "Longitude": 127.0326011,
  "BuildingName": "아이조은동물병원"
 },
 {
  "번호": 66,
  "Name": "동물병원",
  "PhoneNumber": "02-420-9993",
  "address": "서울특별시 송파구 송파동 103-29",
  "Latitude": 37.5032577,
  "Longitude": 127.1134375,
  "BuildingName": "한양동물병원"
 },
 {
  "번호": 67,
  "Name": "동물병원",
  "PhoneNumber": "0507-1350-7229",
  "address": "서울특별시 마포구 신수동 462 신촌숲아이파크",
  "Latitude": 37.5499797,
  "Longitude": 126.934979,
  "BuildingName": "신촌 숲 동물병원"
 },
 {
  "번호": 68,
  "Name": "동물병원",
  "address": "서울특별시 관악구 봉천동 300-17 관악구재향군인회",
  "Latitude": 37.4756641,
  "Longitude": 126.9587687,
  "BuildingName": "닥터펫보리 특수클리닉"
 },
 {
  "번호": 69,
  "Name": "동물병원",
  "PhoneNumber": "907-7512",
  "address": "서울특별시 도봉구 쌍문동 262-10 104호",
  "Latitude": 37.6561902,
  "Longitude": 127.0277183,
  "BuildingName": "사랑해요동물병원"
 },
 {
  "번호": 70,
  "Name": "동물병원",
  "PhoneNumber": "02-797-4408",
  "address": "서울특별시 강남구 역삼동 827-67",
  "Latitude": 37.4958617,
  "Longitude": 127.0322271,
  "BuildingName": "동물치과병원메이"
 },
 {
  "번호": 71,
  "Name": "동물병원",
  "PhoneNumber": 262170202,
  "address": "서울특별시 동대문구 답십리동 259-22",
  "Latitude": 37.5701264,
  "Longitude": 127.05692,
  "BuildingName": "동대문 루시드 동물메디컬센터"
 },
 {
  "번호": 72,
  "Name": "동물병원",
  "PhoneNumber": "02-2135-7228",
  "address": "서울특별시 영등포구 대림동 1127 e편한세상 영등포 아델포레",
  "Latitude": 37.4944058,
  "Longitude": 126.9070601,
  "BuildingName": "동물병원예지"
 },
 {
  "번호": 73,
  "Name": "동물병원",
  "PhoneNumber": "02-830-1494",
  "address": "서울특별시 송파구 방이동 180-3 올림픽타워빌",
  "Latitude": 37.5151269,
  "Longitude": 127.1155687,
  "BuildingName": "베를린 동물치과센터"
 },
 {
  "번호": 74,
  "Name": "동물병원",
  "PhoneNumber": "02-562-7959",
  "address": "서울특별시 강남구 역삼동 725-29 제이유34",
  "Latitude": 37.4999202,
  "Longitude": 127.0405174,
  "BuildingName": "우쭈쭈동물건강검진센터 역삼점"
 },
 {
  "번호": 75,
  "Name": "동물병원",
  "PhoneNumber": "02-936-5500",
  "address": "서울특별시 노원구 상계동 964-5 부흥빌딩",
  "Latitude": 37.6709957,
  "Longitude": 127.0564034,
  "BuildingName": "노원 바른 동물의료센터"
 },
 {
  "번호": 76,
  "Name": "동물병원",
  "address": "서울특별시 송파구 송파동 122-7",
  "Latitude": 37.5040824,
  "Longitude": 127.1138736,
  "BuildingName": "라온펫동물병원"
 },
 {
  "번호": 77,
  "Name": "동물병원",
  "PhoneNumber": "02-415-7555",
  "address": "서울특별시 송파구 방이동 115-4 금천빌딩",
  "Latitude": 37.5090932,
  "Longitude": 127.1149399,
  "BuildingName": "송파 마리동물병원"
 },
 {
  "번호": 78,
  "Name": "동물병원",
  "PhoneNumber": "02-423-5755",
  "address": "서울특별시 강남구 일원동 743 디에이치 자이 개포",
  "Latitude": 37.4909336,
  "Longitude": 127.0751203,
  "BuildingName": "나리울동물병원"
 },
 {
  "번호": 79,
  "Name": "동물병원",
  "PhoneNumber": "02-595-7588",
  "address": "서울특별시 서초구 방배동 755-5 오릭스오피스텔 202호",
  "Latitude": 37.4968212,
  "Longitude": 126.9856096,
  "BuildingName": "몽마르뜨 동물병원"
 },
 {
  "번호": 80,
  "Name": "동물병원",
  "PhoneNumber": "02-572-2772",
  "address": "서울특별시 강남구 개포동 158-8",
  "Latitude": 37.4827748,
  "Longitude": 127.0622169,
  "BuildingName": "디아동물병원"
 },
 {
  "번호": 81,
  "Name": "동물병원",
  "address": "서울특별시 중구 신당동 855 신당 파인힐 하나유보라",
  "Latitude": 37.5646201,
  "Longitude": 127.0246835,
  "BuildingName": "24시SD동물영상의료센터"
 },
 {
  "번호": 82,
  "Name": "동물병원",
  "PhoneNumber": "02-2039-0303",
  "address": "서울특별시 중구 신당동 855 신당 파인힐 하나유보라",
  "Latitude": 37.5646201,
  "Longitude": 127.0246835,
  "BuildingName": "24시SD동물의료센터성동"
 },
 {
  "번호": 83,
  "Name": "동물병원",
  "PhoneNumber": "02-441-7585",
  "address": "서울특별시 강동구 고덕동 210-1 고덕센트럴푸르지오 209호",
  "Latitude": 37.5576095,
  "Longitude": 127.1699516,
  "BuildingName": "고덕 동물의료센터"
 },
 {
  "번호": 84,
  "Name": "동물병원",
  "PhoneNumber": "02)946-0011",
  "address": "서울특별시 강북구 미아동 561-2 현대성우아파트",
  "Latitude": 37.6171833,
  "Longitude": 127.0220243,
  "BuildingName": "아이사랑동물병원 건강검진센터"
 },
 {
  "번호": 85,
  "Name": "동물병원",
  "PhoneNumber": "02-952-9111",
  "address": "서울특별시 노원구 상계동 1025-31 1층",
  "Latitude": 37.6744018,
  "Longitude": 127.0556148,
  "BuildingName": "나우동물의료센터"
 },
 {
  "번호": 86,
  "Name": "동물병원",
  "PhoneNumber": "070-8691-3121",
  "address": "서울특별시 강북구 미아동 137-24",
  "Latitude": 37.6189118,
  "Longitude": 127.0293978,
  "BuildingName": "모네동물피부과"
 },
 {
  "번호": 87,
  "Name": "동물병원",
  "PhoneNumber": "02-517-5585",
  "address": "서울특별시 강남구 삼성동 9-5 201호",
  "Latitude": 37.5151375,
  "Longitude": 127.0426527,
  "BuildingName": "강남예치과동물병원"
 },
 {
  "번호": 88,
  "Name": "동물병원",
  "address": "서울특별시 은평구 진관동 63 롯데몰 은평점",
  "Latitude": 37.6374333,
  "Longitude": 126.917884,
  "BuildingName": "아이러브펫동물병원 은평점"
 },
 {
  "번호": 89,
  "Name": "동물병원",
  "PhoneNumber": "02-2088-2878",
  "address": "서울특별시 송파구 오금동 95-1 이화빌딩",
  "Latitude": 37.5086171,
  "Longitude": 127.1340049,
  "BuildingName": "엘 동물병원"
 },
 {
  "번호": 90,
  "Name": "동물병원",
  "PhoneNumber": "02-2687-7582",
  "address": "서울특별시 구로구 항동 121-1 203, 204호",
  "Latitude": 37.4797448,
  "Longitude": 126.8229808,
  "BuildingName": "클로버 동물병원"
 },
 {
  "번호": 91,
  "Name": "동물병원",
  "PhoneNumber": "02-577-7579",
  "address": "서울특별시 강남구 개포동 1281 디에이치아너힐즈",
  "Latitude": 37.4841105,
  "Longitude": 127.0675212,
  "BuildingName": "다랑동물병원"
 },
 {
  "번호": 92,
  "Name": "동물병원",
  "PhoneNumber": "02-2694-7575",
  "address": "서울특별시 양천구 신월동 536-6 1층",
  "Latitude": 37.5191847,
  "Longitude": 126.843014,
  "BuildingName": "신월라온동물의료센터"
 },
 {
  "번호": 93,
  "Name": "동물병원",
  "PhoneNumber": "02-407-7579",
  "address": "서울특별시 송파구 장지동 884 위례2차아이파크",
  "Latitude": 37.479256,
  "Longitude": 127.1440079,
  "BuildingName": "위례 별 동물의료센터"
 },
 {
  "번호": 94,
  "Name": "동물병원",
  "PhoneNumber": 226918119,
  "address": "서울특별시 양천구 신월동 559-7 2층",
  "Latitude": 37.515315,
  "Longitude": 126.8408596,
  "BuildingName": "정말로동물병원"
 },
 {
  "번호": 95,
  "Name": "동물병원",
  "PhoneNumber": 234777677,
  "address": "서울특별시 은평구 응암동 603-52",
  "Latitude": 37.5856414,
  "Longitude": 126.915707,
  "BuildingName": "다솜동물병원"
 },
 {
  "번호": 96,
  "Name": "동물병원",
  "PhoneNumber": "02-2666-2611",
  "address": "서울특별시 강서구 내발산동 750 발산로얄타워",
  "Latitude": 37.5534781,
  "Longitude": 126.8264569,
  "BuildingName": "마음사랑 동물병원"
 },
 {
  "번호": 97,
  "Name": "동물병원",
  "PhoneNumber": 28497582,
  "address": "서울특별시 영등포구 도림동 216-2",
  "Latitude": 37.5090071,
  "Longitude": 126.8966183,
  "BuildingName": "도림하나동물병원"
 },
 {
  "번호": 98,
  "Name": "동물병원",
  "address": "서울특별시 강동구 둔촌동 99-7 2B호",
  "Latitude": 37.5281449,
  "Longitude": 127.1460958,
  "BuildingName": "양지동물병원"
 },
 {
  "번호": 99,
  "Name": "동물병원",
  "PhoneNumber": "02-2664-8275",
  "address": "서울특별시 강서구 내발산동 702-16",
  "Latitude": 37.5509071,
  "Longitude": 126.8365895,
  "BuildingName": "우장산동물의료센터"
 },
 {
  "번호": 100,
  "Name": "동물병원",
  "PhoneNumber": "02-831-0075",
  "address": "서울특별시 영등포구 신길동 324-49 영민빌딩 1층",
  "Latitude": 37.5057809,
  "Longitude": 126.9063202,
  "BuildingName": "다움동물병원"
 },
 {
  "번호": 101,
  "Name": "동물병원",
  "PhoneNumber": "02-6454-6182",
  "address": "서울특별시 성동구 행당동 377 서울숲 더샵 4층",
  "Latitude": 37.5551334,
  "Longitude": 127.0403659,
  "BuildingName": "바우라움동물병원"
 },
 {
  "번호": 102,
  "Name": "동물병원",
  "PhoneNumber": "02-457-0075",
  "address": "서울특별시 강동구 길동 236-7",
  "Latitude": 37.5341569,
  "Longitude": 127.1413865,
  "BuildingName": "동물영상진단센터\/나음고양이병원"
 },
 {
  "번호": 103,
  "Name": "동물병원",
  "PhoneNumber": "02-457-0075",
  "address": "서울특별시 강동구 길동 236-7",
  "Latitude": 37.5341569,
  "Longitude": 127.1413865,
  "BuildingName": "로얄동물메디컬센터 강동"
 },
 {
  "번호": 104,
  "Name": "동물병원",
  "PhoneNumber": "02-376-7675",
  "address": "서울특별시 마포구 성산동 151-6",
  "Latitude": 37.5694981,
  "Longitude": 126.9050212,
  "BuildingName": "키다리 동물병원"
 },
 {
  "번호": 105,
  "Name": "동물병원",
  "PhoneNumber": "02-6954-7522",
  "address": "서울특별시 마포구 염리동 14-149",
  "Latitude": 37.5467501,
  "Longitude": 126.9463276,
  "BuildingName": "서울준동물병원"
 },
 {
  "번호": 106,
  "Name": "동물병원",
  "PhoneNumber": "02-2039-9780",
  "address": "서울특별시 서초구 잠원동 72-2 반원상가",
  "Latitude": 37.5087645,
  "Longitude": 127.0035242,
  "BuildingName": "파파동물병원"
 },
 {
  "번호": 107,
  "Name": "동물병원",
  "PhoneNumber": "02-426-7979",
  "address": "서울특별시 강동구 강일동 75-10 골드프라자 202-203호",
  "Latitude": 37.5723891,
  "Longitude": 127.175125,
  "BuildingName": "메이플 동물의료센터"
 },
 {
  "번호": 108,
  "Name": "동물병원",
  "PhoneNumber": "02-459-7515",
  "address": "서울특별시 강남구 자곡동 670 강남센터뷰",
  "Latitude": 37.4737808,
  "Longitude": 127.1065697,
  "BuildingName": "얼바인동물병원"
 },
 {
  "번호": 109,
  "Name": "동물병원",
  "PhoneNumber": "02-3144-3253",
  "address": "서울특별시 마포구 상수동 402 래미안밤섬리베뉴 1",
  "Latitude": 37.5466232,
  "Longitude": 126.9254881,
  "BuildingName": "삼색이동물병원"
 },
 {
  "번호": 110,
  "Name": "동물병원",
  "PhoneNumber": "02-3394-7075",
  "address": "서울특별시 동대문구 답십리동 3-125",
  "Latitude": 37.5725825,
  "Longitude": 127.0652663,
  "BuildingName": "땅콩동물병원"
 },
 {
  "번호": 111,
  "Name": "동물병원",
  "PhoneNumber": 269527519,
  "address": "서울특별시 은평구 역촌동 7-15 대광빌딩",
  "Latitude": 37.6095895,
  "Longitude": 126.9168125,
  "BuildingName": "24시예담동물의료센터"
 },
 {
  "번호": 112,
  "Name": "동물병원",
  "PhoneNumber": "02-2039-9930",
  "address": "서울특별시 광진구 자양동 612-56",
  "Latitude": 37.5356847,
  "Longitude": 127.0819003,
  "BuildingName": "우주동물병원"
 },
 {
  "번호": 113,
  "Name": "동물병원",
  "PhoneNumber": "02-6949-3575",
  "address": "서울특별시 구로구 신도림동 435-10 신도림3차푸르지오아파트",
  "Latitude": 37.5068182,
  "Longitude": 126.8840082,
  "BuildingName": "24시 신도림S동물의료센터"
 },
 {
  "번호": 114,
  "Name": "동물병원",
  "PhoneNumber": "439-7582",
  "address": "서울특별시 중랑구 면목동 71-41",
  "Latitude": 37.5874954,
  "Longitude": 127.0941262,
  "BuildingName": "닥터멍동물병원"
 },
 {
  "번호": 115,
  "Name": "동물병원",
  "PhoneNumber": "02-6956-2280",
  "address": "서울특별시 용산구 한남동 737-4 1층",
  "Latitude": 37.5356651,
  "Longitude": 126.9988257,
  "BuildingName": "더벳한남동물병원"
 },
 {
  "번호": 116,
  "Name": "동물병원",
  "PhoneNumber": 269547544,
  "address": "서울특별시 도봉구 쌍문동 256 에벤에셀아파트",
  "Latitude": 37.643632,
  "Longitude": 127.0307472,
  "BuildingName": "보듬동물병원"
 },
 {
  "번호": 118,
  "Name": "동물병원",
  "PhoneNumber": "02-511-7522",
  "address": "서울특별시 강남구 청담동 46 베디베로스퀘어",
  "Latitude": 37.519448,
  "Longitude": 127.0489897,
  "BuildingName": "VIP동물의료센터 청담점"
 },
 {
  "번호": 119,
  "Name": "동물병원",
  "PhoneNumber": "02-2237-7582",
  "address": "서울특별시 강남구 청담동 46 베디베로스퀘어",
  "Latitude": 37.519448,
  "Longitude": 127.0489897,
  "BuildingName": "놀로동물행동클리닉"
 },
 {
  "번호": 120,
  "Name": "동물병원",
  "PhoneNumber": "02-511-7522",
  "address": "서울특별시 강남구 청담동 46 베디베로스퀘어 7층",
  "Latitude": 37.5194404,
  "Longitude": 127.0490303,
  "BuildingName": "VIP동물한방재활의학센터by.Dr.신사경"
 },
 {
  "번호": 121,
  "Name": "동물병원",
  "PhoneNumber": "02-2135-5866",
  "address": "서울특별시 구로구 고척동 50-48 고척프라자",
  "Latitude": 37.5038001,
  "Longitude": 126.8628007,
  "BuildingName": "올리브동물병원"
 },
 {
  "번호": 122,
  "Name": "동물병원",
  "PhoneNumber": "02-3428-0045",
  "address": "서울특별시 강동구 고덕동 210-1 고덕센트럴푸르지오 메가스퀘어동 225호",
  "Latitude": 37.5576095,
  "Longitude": 127.1699516,
  "BuildingName": "센트럴동물병원"
 },
 {
  "번호": 123,
  "Name": "동물병원",
  "PhoneNumber": "02-451-7582",
  "address": "서울특별시 강남구 일원동 645-11 1층, 지하1층",
  "Latitude": 37.4909714,
  "Longitude": 127.0875109,
  "BuildingName": "임재성동물의료센터"
 },
 {
  "번호": 124,
  "Name": "동물병원",
  "PhoneNumber": "02-6956-0040",
  "address": "서울특별시 성북구 돈암동 644 돈암코오롱하늘채",
  "Latitude": 37.5991664,
  "Longitude": 127.0126899,
  "BuildingName": "원러브동물의료센터"
 },
 {
  "번호": 125,
  "Name": "동물병원",
  "address": "서울특별시 강남구 신사동 587-13 2층",
  "Latitude": 37.5207257,
  "Longitude": 127.0299801,
  "BuildingName": "스마트 정형외과 신경외과 동물병원"
 },
 {
  "번호": 126,
  "Name": "동물병원",
  "PhoneNumber": "070-4349-3357",
  "address": "서울특별시 송파구 잠실동 242-2",
  "Latitude": 37.5077669,
  "Longitude": 127.0884542,
  "BuildingName": "도그마루 동물병원"
 },
 {
  "번호": 127,
  "Name": "동물병원",
  "PhoneNumber": "02-6956-7599",
  "address": "서울특별시 은평구 불광동 276-32",
  "Latitude": 37.6123503,
  "Longitude": 126.9317118,
  "BuildingName": "동물병원 움"
 },
 {
  "번호": 128,
  "Name": "동물병원",
  "PhoneNumber": "949-7577",
  "address": "서울특별시 중랑구 묵동 238-8 하태윤산부인과",
  "Latitude": 37.6129198,
  "Longitude": 127.0767919,
  "BuildingName": "치료해 주오"
 },
 {
  "번호": 129,
  "Name": "동물병원",
  "PhoneNumber": "070-4351-3854",
  "address": "서울특별시 노원구 상계동 318-2 (주)노원24시동물의료센터 3층",
  "Latitude": 37.6531769,
  "Longitude": 127.0681256,
  "BuildingName": "앤(N)고양이병원"
 },
 {
  "번호": 130,
  "Name": "동물병원",
  "address": "서울특별시 영등포구 양평동4가 281 르네상스 한강 오피스텔",
  "Latitude": 37.5367037,
  "Longitude": 126.8995891,
  "BuildingName": "플러스동물메디컬센터"
 },
 {
  "번호": 131,
  "Name": "동물병원",
  "PhoneNumber": "02-6925-2225",
  "address": "서울특별시 서초구 방배동 926-3",
  "Latitude": 37.484953,
  "Longitude": 126.9940394,
  "BuildingName": "서울종합동물병원방배"
 },
 {
  "번호": 132,
  "Name": "동물병원",
  "PhoneNumber": "02-2217-8930",
  "address": "서울특별시 동대문구 답십리동 52-3",
  "Latitude": 37.5719483,
  "Longitude": 127.0575928,
  "BuildingName": "아이원 동물병원"
 },
 {
  "번호": 133,
  "Name": "동물병원",
  "PhoneNumber": "02-402-3270",
  "address": "서울특별시 송파구 문정동 652-5 문정아이파크",
  "Latitude": 37.4820257,
  "Longitude": 127.1221389,
  "BuildingName": "동물병원알루"
 },
 {
  "번호": 134,
  "Name": "동물병원",
  "PhoneNumber": 220887578,
  "address": "서울특별시 구로구 항동 128-14 와이제이프라자 104, 204호",
  "Latitude": 37.4809307,
  "Longitude": 126.82462,
  "BuildingName": "항동푸른숲동물병원"
 },
 {
  "번호": 135,
  "Name": "동물병원",
  "address": "서울특별시 은평구 녹번동 28-1",
  "Latitude": 37.6058675,
  "Longitude": 126.9336167,
  "BuildingName": "어울동물의료센터"
 },
 {
  "번호": 136,
  "Name": "동물병원",
  "PhoneNumber": "02-443-6933",
  "address": "서울특별시 송파구 오금동 151-1 재상빌딩",
  "Latitude": 37.500539,
  "Longitude": 127.1370831,
  "BuildingName": "채움동물의료센터"
 },
 {
  "번호": 137,
  "Name": "동물병원",
  "PhoneNumber": "02-2060-7975",
  "address": "서울특별시 구로구 개봉동 403-229 , 조양빌딩1층",
  "Latitude": 37.4932221,
  "Longitude": 126.8564207,
  "BuildingName": "모두동물병원"
 },
 {
  "번호": 138,
  "Name": "동물병원",
  "PhoneNumber": "02-2653-3335",
  "address": "서울특별시 양천구 신정동 324-7 대림아크로빌 102호",
  "Latitude": 37.5154556,
  "Longitude": 126.8597603,
  "BuildingName": "산책동물병원"
 },
 {
  "번호": 139,
  "Name": "동물병원",
  "PhoneNumber": "02-2253-2233",
  "address": "서울특별시 중구 황학동 1596",
  "Latitude": 37.5691104,
  "Longitude": 127.0232663,
  "BuildingName": "웰튼동물의료센터"
 },
 {
  "번호": 140,
  "Name": "동물병원",
  "PhoneNumber": "02-2235-1533",
  "address": "서울특별시 강서구 등촌동 680 한울빌딩",
  "Latitude": 37.5628661,
  "Longitude": 126.8403997,
  "BuildingName": "차지우동물병원"
 },
 {
  "번호": 141,
  "Name": "동물병원",
  "PhoneNumber": "02-470-4707",
  "address": "서울특별시 중랑구 면목동 172-93번지",
  "Latitude": 37.5833556,
  "Longitude": 127.0794686,
  "BuildingName": "레미 동물병원"
 },
 {
  "번호": 142,
  "Name": "동물병원",
  "PhoneNumber": "02-872-7582",
  "address": "서울특별시 관악구 봉천동 1563-6",
  "Latitude": 37.479784,
  "Longitude": 126.9429206,
  "BuildingName": "비바동물병원"
 },
 {
  "번호": 143,
  "Name": "동물병원",
  "PhoneNumber": "02-545-8952",
  "address": "서울특별시 강남구 논현동 159-23 보령빌딩 104호",
  "Latitude": 37.5089723,
  "Longitude": 127.0266848,
  "BuildingName": "커비동물병원"
 },
 {
  "번호": 144,
  "Name": "동물병원",
  "PhoneNumber": "02-733-6030",
  "address": "서울특별시 종로구 신교동 70-10번지",
  "Latitude": 37.5844499,
  "Longitude": 126.9699805,
  "BuildingName": "선동물병원"
 },
 {
  "번호": 145,
  "Name": "동물병원",
  "PhoneNumber": "02-2636-7645",
  "address": "서울특별시 구로구 구로동 631-23 서울반려동물교육센터",
  "Latitude": 37.4979302,
  "Longitude": 126.8710134,
  "BuildingName": "서울동물복지지원센터 동물병원(구로)"
 },
 {
  "번호": 146,
  "Name": "동물병원",
  "PhoneNumber": "02-6953-7512",
  "address": "서울특별시 강동구 고덕동 172-9",
  "Latitude": 37.5606648,
  "Longitude": 127.1704374,
  "BuildingName": "가온동물병원"
 },
 {
  "번호": 147,
  "Name": "동물병원",
  "PhoneNumber": "02-393-7577",
  "address": "서울특별시 서대문구 북아현동 251-40",
  "Latitude": 37.5572091,
  "Longitude": 126.9492687,
  "BuildingName": "링크동물의료센터"
 },
 {
  "번호": 148,
  "Name": "동물병원",
  "PhoneNumber": "02-2607-7582",
  "address": "서울특별시 양천구 신월동 1002-3",
  "Latitude": 37.5162771,
  "Longitude": 126.8377522,
  "BuildingName": "신월동물병원"
 },
 {
  "번호": 149,
  "Name": "동물병원",
  "PhoneNumber": 29117582,
  "address": "서울특별시 성북구 장위동 173-114 래미안장위퍼스트하이",
  "Latitude": 37.6190851,
  "Longitude": 127.0506754,
  "BuildingName": "퍼스트동물병원"
 },
 {
  "번호": 150,
  "Name": "동물병원",
  "PhoneNumber": "02-384-3100",
  "address": "서울특별시 은평구 진관동 67-1번지 은평구 뉴타운2지구 에코테라스 102호",
  "Latitude": 37.638198,
  "Longitude": 126.919223,
  "BuildingName": "피움동물병원"
 },
 {
  "번호": 151,
  "Name": "동물병원",
  "PhoneNumber": 28567582,
  "address": "서울특별시 구로구 고척동 76-38번지 원메디타운 201호",
  "Latitude": 37.4980711,
  "Longitude": 126.8642182,
  "BuildingName": "고척원동물의료센터"
 },
 {
  "번호": 152,
  "Name": "동물병원",
  "PhoneNumber": "02-2672-7582",
  "address": "서울특별시 구로구 신도림동 400-1 110호",
  "Latitude": 37.5061758,
  "Longitude": 126.8771417,
  "BuildingName": "구로다나은동물병원"
 },
 {
  "번호": 153,
  "Name": "동물병원",
  "PhoneNumber": 24697975,
  "address": "서울특별시 성동구 성수동1가 656-968번지 영화빌딩 2층",
  "Latitude": 37.5468653,
  "Longitude": 127.0448689,
  "BuildingName": "오늘동물병원"
 },
 {
  "번호": 154,
  "Name": "동물병원",
  "PhoneNumber": "02-6949-0413",
  "address": "서울특별시 양천구 목동 753-12",
  "Latitude": 37.5372665,
  "Longitude": 126.8718683,
  "BuildingName": "봄날동물병원"
 },
 {
  "번호": 155,
  "Name": "동물병원",
  "PhoneNumber": 226627975,
  "address": "서울특별시 강서구 마곡동 798-14번지 205호",
  "Latitude": 37.5585339,
  "Longitude": 126.82472,
  "BuildingName": "모모동물병원"
 },
 {
  "번호": 156,
  "Name": "동물병원",
  "PhoneNumber": "02-2135-6575",
  "address": "서울특별시 송파구 가락동 479 헬리오시티",
  "Latitude": 37.4956865,
  "Longitude": 127.1184047,
  "BuildingName": "헬리오동물병원"
 },
 {
  "번호": 157,
  "Name": "동물병원",
  "PhoneNumber": "02-6949-5775",
  "address": "서울특별시 강동구 길동 413-46 베스트올",
  "Latitude": 37.5357004,
  "Longitude": 127.1388826,
  "BuildingName": "펫트리동물의료센터"
 },
 {
  "번호": 158,
  "Name": "동물병원",
  "PhoneNumber": "02-971-5955",
  "address": "서울특별시 노원구 공릉동 596-5",
  "Latitude": 37.6205831,
  "Longitude": 127.0749431,
  "BuildingName": "골드퍼피동물병원 공릉점"
 },
 {
  "번호": 159,
  "Name": "동물병원",
  "PhoneNumber": "02-812-7585",
  "address": "서울특별시 동작구 상도1동 623",
  "Latitude": 37.5043895,
  "Longitude": 126.9493961,
  "BuildingName": "품 동물의료센터"
 },
 {
  "번호": 160,
  "Name": "동물병원",
  "PhoneNumber": "02-878-9978",
  "address": "서울특별시 관악구 봉천동 1612-1번지",
  "Latitude": 37.4794328,
  "Longitude": 126.9556902,
  "BuildingName": "봉천현대동물병원"
 },
 {
  "번호": 161,
  "Name": "동물병원",
  "PhoneNumber": "02-561-3375",
  "address": "서울특별시 강남구 역삼동 838-9 거암빌딩",
  "Latitude": 37.4902059,
  "Longitude": 127.0329695,
  "BuildingName": "아이힐 동물병원"
 },
 {
  "번호": 162,
  "Name": "동물병원",
  "PhoneNumber": 226627515,
  "address": "서울특별시 강서구 방화동 245-31",
  "Latitude": 37.5686123,
  "Longitude": 126.8163466,
  "BuildingName": "마곡M동물의료센터"
 },
 {
  "번호": 163,
  "Name": "동물병원",
  "PhoneNumber": "02-2213-0075",
  "address": "서울특별시 동대문구 장안동 435-6번지",
  "Latitude": 37.5650701,
  "Longitude": 127.0673872,
  "BuildingName": "아인스동물병원"
 },
 {
  "번호": 164,
  "Name": "동물병원",
  "PhoneNumber": "02-2690-7579",
  "address": "서울특별시 양천구 신월동 984-1번지 인산빌딩",
  "Latitude": 37.5174216,
  "Longitude": 126.8377445,
  "BuildingName": "해맞이 동물병원"
 },
 {
  "번호": 165,
  "Name": "동물병원",
  "PhoneNumber": "02-544-2882",
  "address": "서울특별시 강남구 청담동 52-6 301호",
  "Latitude": 37.5245027,
  "Longitude": 127.0527589,
  "BuildingName": "청담리덴동물치과병원"
 },
 {
  "번호": 166,
  "Name": "동물병원",
  "PhoneNumber": "02-982-7975",
  "address": "서울특별시 성북구 길음동 498-1 래미안길음센터피스",
  "Latitude": 37.6113506,
  "Longitude": 127.0269359,
  "BuildingName": "더편한동물병원"
 },
 {
  "번호": 167,
  "Name": "동물병원",
  "PhoneNumber": "02-333-7750",
  "address": "서울특별시 서대문구 연희동 79-12",
  "Latitude": 37.5727708999999,
  "Longitude": 126.9357592,
  "BuildingName": "헬로우 동물병원"
 },
 {
  "번호": 168,
  "Name": "동물병원",
  "PhoneNumber": "02-927-7517",
  "address": "서울특별시 성북구 동선동5가 1번지",
  "Latitude": 37.5945143,
  "Longitude": 127.0163274,
  "BuildingName": "성신동물병원"
 },
 {
  "번호": 169,
  "Name": "동물병원",
  "PhoneNumber": "02-501-8275",
  "address": "서울특별시 강남구 대치동 990-1 무진빌딩",
  "Latitude": 37.4994149,
  "Longitude": 127.0634446,
  "BuildingName": "대치동물메디컬센터"
 },
 {
  "번호": 170,
  "Name": "동물병원",
  "PhoneNumber": "02-2295-9888",
  "address": "서울특별시 성동구 하왕십리동 1070 센트라스상가 D동 106호",
  "Latitude": 37.5661099999999,
  "Longitude": 127.0276467,
  "BuildingName": "베이지동물병원"
 },
 {
  "번호": 171,
  "Name": "동물병원",
  "PhoneNumber": "02-3474-7582",
  "address": "서울특별시 서초구 서초동 1605-5번지 서광빌딩",
  "Latitude": 37.4868231,
  "Longitude": 127.0219953,
  "BuildingName": "서초이음동물병원"
 },
 {
  "번호": 172,
  "Name": "동물병원",
  "PhoneNumber": "02-433-7515",
  "address": "서울특별시 중랑구 신내동 563-2번지",
  "Latitude": 37.6050484,
  "Longitude": 127.0956274,
  "BuildingName": "아이봄 동물병원"
 },
 {
  "번호": 173,
  "Name": "동물병원",
  "PhoneNumber": "955-6530",
  "address": "서울특별시 도봉구 도봉동 636-12 킴스타워",
  "Latitude": 37.6694186,
  "Longitude": 127.0464995,
  "BuildingName": "김미경 동물병원"
 },
 {
  "번호": 174,
  "Name": "동물병원",
  "PhoneNumber": "02-2642-7588",
  "address": "서울특별시 양천구 신정동 982-4 M1~2층",
  "Latitude": 37.5223384,
  "Longitude": 126.8604835,
  "BuildingName": "우리들동물메디컬센터"
 },
 {
  "번호": 175,
  "Name": "동물병원",
  "PhoneNumber": "02-931-1333",
  "address": "서울특별시 노원구 상계동 763-5",
  "Latitude": 37.6478258,
  "Longitude": 127.0623291,
  "BuildingName": "브이아이피 동물의료센터"
 },
 {
  "번호": 176,
  "Name": "동물병원",
  "PhoneNumber": "02-2634-8275",
  "address": "서울특별시 영등포구 영등포동4가 442 타임스퀘어",
  "Latitude": 37.5170751,
  "Longitude": 126.9033411,
  "BuildingName": "러브펫 동물병원"
 },
 {
  "번호": 177,
  "Name": "동물병원",
  "PhoneNumber": "02-3471-0075",
  "address": "서울특별시 서초구 서초동 1332-2 대한무지개종합상가 103호",
  "Latitude": 37.4923671,
  "Longitude": 127.0258472,
  "BuildingName": "에이비씨(ABC)동물병원"
 },
 {
  "번호": 178,
  "Name": "동물병원",
  "PhoneNumber": "02-6956-7502",
  "address": "서울특별시 중구 을지로5가 133-1 뉴천지관광호텔",
  "Latitude": 37.5659043,
  "Longitude": 127.0033344,
  "BuildingName": "서울동물영상종양센터"
 },
 {
  "번호": 179,
  "Name": "동물병원",
  "PhoneNumber": "02-6956-7502",
  "address": "서울특별시 중구 을지로5가 133-1 뉴천지관광호텔",
  "Latitude": 37.5659043,
  "Longitude": 127.0033344,
  "BuildingName": "헬릭스동물암센터"
 },
 {
  "번호": 180,
  "Name": "동물병원",
  "PhoneNumber": "02-6965-7502",
  "address": "서울특별시 중구 을지로5가 133-1 뉴천지관광호텔",
  "Latitude": 37.5659043,
  "Longitude": 127.0033344,
  "BuildingName": "헬릭스동물심장수술센터"
 },
 {
  "번호": 181,
  "Name": "동물병원",
  "PhoneNumber": 264546182,
  "address": "서울특별시 성동구 행당동 155-1번지 파크에비뉴 엔터식스",
  "Latitude": 37.5620177,
  "Longitude": 127.0383628,
  "BuildingName": "바우라움동물병원"
 },
 {
  "번호": 182,
  "Name": "동물병원",
  "PhoneNumber": "02-6949-3038",
  "address": "서울특별시 서초구 반포동 739-32 제이디 빌딩",
  "Latitude": 37.5047963,
  "Longitude": 127.0223582,
  "BuildingName": "서초 이태형 동물병원"
 },
 {
  "번호": 183,
  "Name": "동물병원",
  "PhoneNumber": "02-2677-2720",
  "address": "서울특별시 영등포구 문래동3가 84-2번지 동국메뜨리앙",
  "Latitude": 37.5206222,
  "Longitude": 126.8899239,
  "BuildingName": "캣앤캣 고양이 병원"
 },
 {
  "번호": 184,
  "Name": "동물병원",
  "PhoneNumber": "02-2234-7585",
  "address": "서울특별시 중구 황학동 2545 롯데캐슬베네치아",
  "Latitude": 37.5709778,
  "Longitude": 127.021434,
  "BuildingName": "웰니스클리닉(청계천점)"
 },
 {
  "번호": 185,
  "Name": "동물병원",
  "PhoneNumber": "02-545-4975",
  "address": "서울특별시 강남구 신사동 586-3 영석빌딩",
  "Latitude": 37.5212017,
  "Longitude": 127.027746,
  "BuildingName": "에이드동물병원"
 },
 {
  "번호": 186,
  "Name": "동물병원",
  "PhoneNumber": "02-832-7975",
  "address": "서울특별시 영등포구 신길동 4945번지 래미안프레비뉴",
  "Latitude": 37.50492,
  "Longitude": 126.9081665,
  "BuildingName": "라이프 동물병원"
 },
 {
  "번호": 187,
  "Name": "동물병원",
  "PhoneNumber": "02-2632-2307",
  "address": "서울특별시 영등포구 영등포동7가 203번지 아크로타워 스퀘어",
  "Latitude": 37.523105,
  "Longitude": 126.9072522,
  "BuildingName": "영등포아크로 동물병원"
 },
 {
  "번호": 188,
  "Name": "동물병원",
  "address": "서울특별시 송파구 거여동 20-5번지 정림빌딩",
  "Latitude": 37.4945858,
  "Longitude": 127.1419259,
  "BuildingName": "온마음 동물메디컬센터"
 },
 {
  "번호": 189,
  "Name": "동물병원",
  "PhoneNumber": "2666-7990",
  "address": "서울특별시 강서구 마곡동 743-4번지 마곡엠밸리7단지",
  "Latitude": 37.5653878,
  "Longitude": 126.8234577,
  "BuildingName": "참동물병원"
 },
 {
  "번호": 190,
  "Name": "동물병원",
  "PhoneNumber": "02-2038-7555",
  "address": "서울특별시 중구 신당동 102-6번지",
  "Latitude": 37.5634982,
  "Longitude": 127.0159751,
  "BuildingName": "메종동물병원"
 },
 {
  "번호": 191,
  "Name": "동물병원",
  "PhoneNumber": 234094640,
  "address": "서울특별시 성동구 송정동 79-2번지",
  "Latitude": 37.5485283,
  "Longitude": 127.0671999,
  "BuildingName": "수동물병원"
 },
 {
  "번호": 192,
  "Name": "동물병원",
  "PhoneNumber": "02-6964-8276",
  "address": "서울특별시 은평구 녹번동 215",
  "Latitude": 37.6014138,
  "Longitude": 126.9313495,
  "BuildingName": "치유동물의료센터"
 },
 {
  "번호": 193,
  "Name": "동물병원",
  "PhoneNumber": "02-946-0011",
  "address": "서울특별시 강북구 미아동 561-2번지 현대성우아파트 102동 110호",
  "Latitude": 37.6171833,
  "Longitude": 127.0220243,
  "BuildingName": "아이사랑동물병원"
 },
 {
  "번호": 194,
  "Name": "동물병원",
  "PhoneNumber": "02-719-8275",
  "address": "서울특별시 용산구 청파동2가 90-20번지 지상1층",
  "Latitude": 37.5449793,
  "Longitude": 126.9694907,
  "BuildingName": "원스동물병원"
 },
 {
  "번호": 195,
  "Name": "동물병원",
  "PhoneNumber": "6369-0075",
  "address": "서울특별시 도봉구 도봉동 623-103번지 1층",
  "Latitude": 37.6721946,
  "Longitude": 127.0463662,
  "BuildingName": "빛가온동물병원"
 },
 {
  "번호": 196,
  "Name": "동물병원",
  "PhoneNumber": "3491-8000",
  "address": "서울특별시 도봉구 방학동 680-1 1층",
  "Latitude": 37.6644014,
  "Longitude": 127.0420621,
  "BuildingName": "현대종합동물병원"
 },
 {
  "번호": 197,
  "Name": "동물병원",
  "PhoneNumber": "02-6956-2475",
  "address": "서울특별시 관악구 봉천동 1673-21 1층 103호",
  "Latitude": 37.4800036,
  "Longitude": 126.9569226,
  "BuildingName": "24시 굿케어동물의료센터"
 },
 {
  "번호": 198,
  "Name": "동물병원",
  "PhoneNumber": "02-2232-9702",
  "address": "서울특별시 중구 신당동 353-130",
  "Latitude": 37.5520737,
  "Longitude": 127.0080362,
  "BuildingName": "애니컴 메디컬센터"
 },
 {
  "번호": 199,
  "Name": "동물병원",
  "PhoneNumber": "02-426-7722",
  "address": "서울특별시 강동구 강일동 679-2번지 MIDC빌딩",
  "Latitude": 37.5646796,
  "Longitude": 127.1739898,
  "BuildingName": "아프리카동물병원"
 },
 {
  "번호": 200,
  "Name": "동물병원",
  "PhoneNumber": "02-455-5975",
  "address": "서울특별시 광진구 자양동 681",
  "Latitude": 37.5323742,
  "Longitude": 127.0857526,
  "BuildingName": "아이본 동물병원"
 },
 {
  "번호": 201,
  "Name": "동물병원",
  "PhoneNumber": "0507-1375-5852",
  "address": "서울특별시 송파구 문정동 652-4 힐스테이트에코문정상가 1층 120,121호",
  "Latitude": 37.4825701,
  "Longitude": 127.1228829,
  "BuildingName": "문정힐스 동물병원"
 },
 {
  "번호": 202,
  "Name": "동물병원",
  "PhoneNumber": "02-566-5852",
  "address": "서울특별시 강남구 역삼동 834-45번지 동광빌딩 1층",
  "Latitude": 37.4942254,
  "Longitude": 127.0347102,
  "BuildingName": "하나카동물병원"
 },
 {
  "번호": 203,
  "Name": "동물병원",
  "PhoneNumber": "02-941-7900",
  "address": "서울특별시 강북구 미아동 42-11 덕신빌딩 4층",
  "Latitude": 37.6095305,
  "Longitude": 127.0306021,
  "BuildingName": "24시루시드동물메디컬센터"
 },
 {
  "번호": 204,
  "Name": "동물병원",
  "PhoneNumber": "02-2643-2777",
  "address": "서울특별시 양천구 목동 721-1번지 목동한강팰리스",
  "Latitude": 37.5400788,
  "Longitude": 126.8639842,
  "BuildingName": "가온동물병원"
 },
 {
  "번호": 205,
  "Name": "동물병원",
  "PhoneNumber": "02-549-9773",
  "address": "서울특별시 강남구 압구정동 426번지 현대아파트 상가 1동 201호",
  "Latitude": 37.5271478,
  "Longitude": 127.0334517,
  "BuildingName": "튼튼동물병원"
 },
 {
  "번호": 206,
  "Name": "동물병원",
  "PhoneNumber": 26991222,
  "address": "서울특별시 강서구 염창동 246-11번지",
  "Latitude": 37.5521636,
  "Longitude": 126.8708352,
  "BuildingName": "푸른들동물병원"
 },
 {
  "번호": 207,
  "Name": "동물병원",
  "PhoneNumber": "02-932-8575",
  "address": "서울특별시 노원구 상계동 746-4 명지프라자빌딩 102호",
  "Latitude": 37.6503872,
  "Longitude": 127.0613201,
  "BuildingName": "우리 동물병원"
 },
 {
  "번호": 208,
  "Name": "동물병원",
  "PhoneNumber": "955-8400",
  "address": "서울특별시 도봉구 도봉동 562-26",
  "Latitude": 37.6826754999999,
  "Longitude": 127.0455403,
  "BuildingName": "도담동물병원"
 },
 {
  "번호": 209,
  "Name": "동물병원",
  "PhoneNumber": "02-546-9539",
  "address": "서울특별시 강남구 논현동 88-4 양현빌딩 2층\/5층",
  "Latitude": 37.5151523,
  "Longitude": 127.0323757,
  "BuildingName": "최영민 동물의료센터"
 },
 {
  "번호": 210,
  "Name": "동물병원",
  "PhoneNumber": "02-2088-7775",
  "address": "서울특별시 송파구 방이동 108-7",
  "Latitude": 37.510883,
  "Longitude": 127.1114953,
  "BuildingName": "샤인동물메디컬센터"
 },
 {
  "번호": 211,
  "Name": "동물병원",
  "PhoneNumber": "02-6383-0303",
  "address": "서울특별시 마포구 공덕동 404 풍림브이아이피텔",
  "Latitude": 37.546004,
  "Longitude": 126.9521857,
  "BuildingName": "콩닥 동물병원"
 },
 {
  "번호": 212,
  "Name": "동물병원",
  "PhoneNumber": "02-930-7161",
  "address": "서울특별시 노원구 상계동 1025-32번지 1층",
  "Latitude": 37.6735706,
  "Longitude": 127.055823,
  "BuildingName": "서정동물병원"
 },
 {
  "번호": 213,
  "Name": "동물병원",
  "PhoneNumber": "02-593-7575",
  "address": "서울특별시 서초구 반포동 89-7",
  "Latitude": 37.4964162,
  "Longitude": 126.9983828,
  "BuildingName": "이을동물병원"
 },
 {
  "번호": 214,
  "Name": "동물병원",
  "PhoneNumber": "02-2088-1375",
  "address": "서울특별시 마포구 염리동 156-1",
  "Latitude": 37.5461302,
  "Longitude": 126.9451195,
  "BuildingName": "아이웰 동물의료센터"
 },
 {
  "번호": 215,
  "Name": "동물병원",
  "PhoneNumber": "02-358-7582",
  "address": "서울특별시 은평구 대조동 223-13번지 1층",
  "Latitude": 37.6131982,
  "Longitude": 126.9178719,
  "BuildingName": "연서동물종합병원"
 },
 {
  "번호": 216,
  "Name": "동물병원",
  "PhoneNumber": "02-2647-1772",
  "address": "서울특별시 양천구 목동 783-2",
  "Latitude": 37.5351276,
  "Longitude": 126.8637766,
  "BuildingName": "하니동물병원"
 },
 {
  "번호": 217,
  "Name": "동물병원",
  "PhoneNumber": "993-0075",
  "address": "서울특별시 도봉구 창동 661-64",
  "Latitude": 37.6500753,
  "Longitude": 127.0359277,
  "BuildingName": "둘리동물병원"
 },
 {
  "번호": 218,
  "Name": "동물병원",
  "PhoneNumber": "02-6933-0113",
  "address": "서울특별시 영등포구 당산동4가 94-1번지 당산2차삼성아파트",
  "Latitude": 37.5278527,
  "Longitude": 126.8984322,
  "BuildingName": "그림책 읽어주는 동물병원"
 },
 {
  "번호": 219,
  "Name": "동물병원",
  "PhoneNumber": "02-715-7575",
  "address": "서울특별시 마포구 구수동 56-8",
  "Latitude": 37.5468575,
  "Longitude": 126.9326554,
  "BuildingName": "산책 동물병원"
 },
 {
  "번호": 220,
  "Name": "동물병원",
  "PhoneNumber": "0507-1330-1480",
  "address": "서울특별시 송파구 잠실동 40-1 롯데월드 1층 S-911호",
  "Latitude": 37.5112862,
  "Longitude": 127.0979392,
  "BuildingName": "웰니스동물병원(롯데월드점)"
 },
 {
  "번호": 221,
  "Name": "동물병원",
  "PhoneNumber": "02-2203-7975",
  "address": "서울특별시 송파구 석촌동 2-9 금보 2층",
  "Latitude": 37.5049771,
  "Longitude": 127.097397,
  "BuildingName": "잠실베스트동물병원 수술재활센터"
 },
 {
  "번호": 222,
  "Name": "동물병원",
  "PhoneNumber": "02-532-5119",
  "address": "서울특별시 서초구 방배동 2100",
  "Latitude": 37.4910525,
  "Longitude": 126.9845609,
  "BuildingName": "헤이븐동물병원"
 },
 {
  "번호": 223,
  "Name": "동물병원",
  "PhoneNumber": "02-888-8807",
  "address": "서울특별시 관악구 신림동 408-143번지 1층",
  "Latitude": 37.4772314,
  "Longitude": 126.9352616,
  "BuildingName": "서울종합동물병원"
 },
 {
  "번호": 224,
  "Name": "동물병원",
  "PhoneNumber": "02-6403-1750",
  "address": "서울특별시 강동구 길동 345-5번지",
  "Latitude": 37.5411846,
  "Longitude": 127.1430478,
  "BuildingName": "사랑동물병원"
 },
 {
  "번호": 225,
  "Name": "동물병원",
  "PhoneNumber": "02-486-4252",
  "address": "서울특별시 강동구 둔촌동 53번지 원경빌딩",
  "Latitude": 37.5339307,
  "Longitude": 127.1431488,
  "BuildingName": "김태화동물병원"
 },
 {
  "번호": 226,
  "Name": "동물병원",
  "PhoneNumber": "02-3142-7298",
  "address": "서울특별시 마포구 서교동 444-5",
  "Latitude": 37.5533797999999,
  "Longitude": 126.9122367,
  "BuildingName": "이층애 고양이동물병원"
 },
 {
  "번호": 227,
  "Name": "동물병원",
  "PhoneNumber": "02-549-4505",
  "address": "서울특별시 강남구 논현동 59-5 진성빌딩",
  "Latitude": 37.5196337,
  "Longitude": 127.0290227,
  "BuildingName": "신사동물병원"
 },
 {
  "번호": 228,
  "Name": "동물병원",
  "PhoneNumber": "02-466-8215",
  "address": "서울특별시 성동구 성수동1가 718번지 트리마제",
  "Latitude": 37.5388236,
  "Longitude": 127.045046,
  "BuildingName": "달링동물병원"
 },
 {
  "번호": 229,
  "Name": "동물병원",
  "PhoneNumber": "02-2039-2575",
  "address": "서울특별시 송파구 석촌동 15 제우빌딩 2층 202호",
  "Latitude": 37.5028733,
  "Longitude": 127.0989868,
  "BuildingName": "닥터캣 고양이병원"
 },
 {
  "번호": 230,
  "Name": "동물병원",
  "address": "서울특별시 중랑구 상봉동 137-16번지",
  "Latitude": 37.5924376,
  "Longitude": 127.0726366,
  "BuildingName": "중랑차 동물병원"
 },
 {
  "번호": 231,
  "Name": "동물병원",
  "PhoneNumber": "02-2676-7582",
  "address": "서울특별시 영등포구 양평동1가 28-3",
  "Latitude": 37.5223389,
  "Longitude": 126.8911691,
  "BuildingName": "24시 수 동물메디컬센터"
 },
 {
  "번호": 232,
  "Name": "동물병원",
  "PhoneNumber": "02-2242-7510",
  "address": "서울특별시 동대문구 답십리동 490-57번지",
  "Latitude": 37.5666198,
  "Longitude": 127.0559077,
  "BuildingName": "하이유 동물병원"
 },
 {
  "번호": 233,
  "Name": "동물병원",
  "PhoneNumber": 25366469,
  "address": "서울특별시 서초구 잠원동 58-24 뉴타운",
  "Latitude": 37.5085147,
  "Longitude": 127.0116623,
  "BuildingName": "해뜨는 동물병원 해질녘책방"
 },
 {
  "번호": 234,
  "Name": "동물병원",
  "PhoneNumber": "02-373-7500",
  "address": "서울특별시 서대문구 북가좌동 300-2",
  "Latitude": 37.5796412,
  "Longitude": 126.9114362,
  "BuildingName": "위드 동물병원"
 },
 {
  "번호": 235,
  "Name": "동물병원",
  "PhoneNumber": "02-454-8275",
  "address": "서울특별시 강남구 삼성동 10-25 대호빌딩 1층",
  "Latitude": 37.5146018,
  "Longitude": 127.0437307,
  "BuildingName": "혜민동물병원"
 },
 {
  "번호": 236,
  "Name": "동물병원",
  "PhoneNumber": "02-797-1275",
  "address": "서울특별시 용산구 한강로3가 63-389 용산시티파크1단지 101동 101호",
  "Latitude": 37.5250734,
  "Longitude": 126.9689153,
  "BuildingName": "워너비동물병원 용산점"
 },
 {
  "번호": 237,
  "Name": "동물병원",
  "PhoneNumber": "02-6951-4327",
  "address": "서울특별시 강남구 압구정동 455번지 상가 제2층 203호",
  "Latitude": 37.5319756,
  "Longitude": 127.0285632,
  "BuildingName": "봄사랑 동물병원"
 },
 {
  "번호": 238,
  "Name": "동물병원",
  "PhoneNumber": "02-905-7588",
  "address": "서울특별시 노원구 월계동 292-59번지 상천빌딩1층",
  "Latitude": 37.6291493,
  "Longitude": 127.057846,
  "BuildingName": "닥터스종합동물병원"
 },
 {
  "번호": 239,
  "Name": "동물병원",
  "PhoneNumber": "02-523-0275",
  "address": "서울특별시 서초구 방배동 951-3 대진빌딩",
  "Latitude": 37.4854893,
  "Longitude": 126.9850822,
  "BuildingName": "심바동물병원"
 },
 {
  "번호": 240,
  "Name": "동물병원",
  "PhoneNumber": "02-484-7975",
  "address": "서울특별시 강동구 천호동 25-6 조희빌딩",
  "Latitude": 37.5492721,
  "Longitude": 127.143436,
  "BuildingName": "동물병원 공감"
 },
 {
  "번호": 241,
  "Name": "동물병원",
  "PhoneNumber": "02-3144-7582",
  "address": "서울특별시 서대문구 연희동 135-9번지 내풍빌딩",
  "Latitude": 37.5678116,
  "Longitude": 126.9319184,
  "BuildingName": "에이플러스 동물병원"
 },
 {
  "번호": 242,
  "Name": "동물병원",
  "PhoneNumber": "02-464-7582",
  "address": "서울특별시 광진구 중곡동 162-8",
  "Latitude": 37.5608297,
  "Longitude": 127.0812361,
  "BuildingName": "스마트동물병원군자점"
 },
 {
  "번호": 243,
  "Name": "동물병원",
  "PhoneNumber": "02-431-7575",
  "address": "서울특별시 송파구 장지동 881-5 에스비트램스퀘어 203,204호",
  "Latitude": 37.4812143,
  "Longitude": 127.1428973,
  "BuildingName": "위례S동물의료센터"
 },
 {
  "번호": 244,
  "Name": "동물병원",
  "PhoneNumber": 236660204,
  "address": "서울특별시 구로구 고척동 343 고척 월드메르디앙 109동 5호",
  "Latitude": 37.5029448,
  "Longitude": 126.8631474,
  "BuildingName": "드림동물병원"
 },
 {
  "번호": 245,
  "Name": "동물병원",
  "PhoneNumber": "802-2811",
  "address": "서울특별시 금천구 시흥동 904-6 서우빌딩",
  "Latitude": 37.4494089,
  "Longitude": 126.9030357,
  "BuildingName": "더조은 동물의료센터"
 },
 {
  "번호": 246,
  "Name": "동물병원",
  "PhoneNumber": "537-7412",
  "address": "서울특별시 서초구 반포동 18-3번지 래미안퍼스티지 중심상가 143호",
  "Latitude": 37.5044951,
  "Longitude": 127.0007548,
  "BuildingName": "신세계 동물병원"
 },
 {
  "번호": 247,
  "Name": "동물병원",
  "PhoneNumber": "02-949-0975",
  "address": "서울특별시 노원구 월계동 333-1번지 월계이마트",
  "Latitude": 37.626501,
  "Longitude": 127.061849,
  "BuildingName": "웰니스 동물병원"
 },
 {
  "번호": 248,
  "Name": "동물병원",
  "PhoneNumber": "3662-8661",
  "address": "서울특별시 강서구 염창동 265-23번지 9,10호",
  "Latitude": 37.5513319,
  "Longitude": 126.8710831,
  "BuildingName": "서서울동물병원"
 },
 {
  "번호": 249,
  "Name": "동물병원",
  "PhoneNumber": "02-420-0975",
  "address": "서울특별시 송파구 잠실동 242-4 리치빌딩 1층",
  "Latitude": 37.5076557,
  "Longitude": 127.0888518,
  "BuildingName": "신천동물병원"
 },
 {
  "번호": 250,
  "Name": "동물병원",
  "PhoneNumber": "02-403-7582",
  "address": "서울특별시 송파구 문정동 624 송파아이파크 1동 E204호",
  "Latitude": 37.4798679,
  "Longitude": 127.1217483,
  "BuildingName": "송파데일리동물병원"
 },
 {
  "번호": 251,
  "Name": "동물병원",
  "PhoneNumber": "02-883-0007",
  "address": "서울특별시 관악구 봉천동 622-74번지",
  "Latitude": 37.4870631,
  "Longitude": 126.9447231,
  "BuildingName": "더블유동물병원"
 },
 {
  "번호": 252,
  "Name": "동물병원",
  "PhoneNumber": "997-0075",
  "address": "서울특별시 도봉구 쌍문동 45-8",
  "Latitude": 37.6579363,
  "Longitude": 127.0364245,
  "BuildingName": "태일동물치과병원"
 },
 {
  "번호": 253,
  "Name": "동물병원",
  "PhoneNumber": "02-3280-8275",
  "address": "서울특별시 동작구 상도동 27-12 성은빌딩",
  "Latitude": 37.5000143,
  "Longitude": 126.9286707,
  "BuildingName": "유케어종합동물병원"
 },
 {
  "번호": 254,
  "Name": "동물병원",
  "PhoneNumber": "2644-5975",
  "address": "서울특별시 강서구 화곡동 796-1번지 피앤와이빌딩 3호",
  "Latitude": 37.5319785,
  "Longitude": 126.861805,
  "BuildingName": "하트온동물병원"
 },
 {
  "번호": 255,
  "Name": "동물병원",
  "PhoneNumber": "02-446-8175",
  "address": "서울특별시 광진구 구의동 611 구의현대2단지아파트",
  "Latitude": 37.5387348,
  "Longitude": 127.0961255,
  "BuildingName": "광진24시필동물병원"
 },
 {
  "번호": 256,
  "Name": "동물병원",
  "PhoneNumber": "02-569-7582",
  "address": "서울특별시 강남구 역삼동 766-20 역삼프라자",
  "Latitude": 37.4955787,
  "Longitude": 127.0498106,
  "BuildingName": "24시OK동물병원"
 },
 {
  "번호": 257,
  "Name": "동물병원",
  "address": "서울특별시 종로구 홍파동 42-13 경희궁자이 2단지 상가동 2229호",
  "Latitude": 37.5704927,
  "Longitude": 126.963397,
  "BuildingName": "경희궁 바른 동물병원"
 },
 {
  "번호": 258,
  "Name": "동물병원",
  "PhoneNumber": "02-566-8211",
  "address": "서울특별시 강남구 대치동 909-5 1,2층",
  "Latitude": 37.5012739,
  "Longitude": 127.0536426,
  "BuildingName": "서울동물의료센터"
 },
 {
  "번호": 259,
  "Name": "동물병원",
  "PhoneNumber": "02-2212-7596",
  "address": "서울특별시 동대문구 장안동 330-2번지",
  "Latitude": 37.5725063,
  "Longitude": 127.0730558,
  "BuildingName": "현대종합동물병원"
 },
 {
  "번호": 260,
  "Name": "동물병원",
  "PhoneNumber": "954-6990",
  "address": "서울특별시 도봉구 도봉동 62-43번지 도봉투웨니퍼스트2단지",
  "Latitude": 37.6826104,
  "Longitude": 127.0475778,
  "BuildingName": "해봄동물병원"
 },
 {
  "번호": 261,
  "Name": "동물병원",
  "PhoneNumber": "02-2124-2832",
  "address": "서울특별시 마포구 상암동 1648 S-PLEX CENTER 지하1층",
  "Latitude": 37.5756374,
  "Longitude": 126.890042,
  "BuildingName": "서울동물복지지원센터 동물병원"
 },
 {
  "번호": 263,
  "Name": "동물병원",
  "PhoneNumber": "02-583-7582",
  "address": "서울특별시 강남구 삼성동 160-21번지 3층",
  "Latitude": 37.5137329999999,
  "Longitude": 127.0618806,
  "BuildingName": "아크리스동물의료센터"
 },
 {
  "번호": 264,
  "Name": "동물병원",
  "PhoneNumber": "02-792-8275",
  "address": "서울특별시 용산구 한남동 29-6 아이리스프라자 지상3층",
  "Latitude": 37.5346908,
  "Longitude": 127.0096041,
  "BuildingName": "더힐동물의료센터"
 },
 {
  "번호": 265,
  "Name": "동물병원",
  "PhoneNumber": 24550975,
  "BuildingName": "연두동물병원"
 },
 {
  "번호": 266,
  "Name": "동물병원",
  "PhoneNumber": "02-927-7878",
  "address": "서울특별시 성북구 동소문동6가 237번지",
  "Latitude": 37.5953561,
  "Longitude": 127.0157568,
  "BuildingName": "로이동물병원"
 },
 {
  "번호": 267,
  "Name": "동물병원",
  "PhoneNumber": "2065-7582",
  "address": "서울특별시 강서구 화곡동 371-32번지",
  "Latitude": 37.5369775,
  "Longitude": 126.8379227,
  "BuildingName": "올스타동물의료센터"
 },
 {
  "번호": 268,
  "Name": "동물병원",
  "PhoneNumber": "02-373-5555",
  "address": "서울특별시 은평구 증산동 202-27번지 지하1층",
  "Latitude": 37.5869368,
  "Longitude": 126.908564,
  "BuildingName": "가든펫동물병원"
 },
 {
  "번호": 269,
  "Name": "동물병원",
  "PhoneNumber": "02-577-7582",
  "address": "서울특별시 강남구 개포동 1259-4번지 101호",
  "Latitude": 37.4791662,
  "Longitude": 127.0491313,
  "BuildingName": "나은동물병원"
 },
 {
  "번호": 270,
  "Name": "동물병원",
  "PhoneNumber": "02-6953-8275",
  "address": "서울특별시 은평구 진관동 83번지 은평뉴타운우물골 205동 B104호",
  "Latitude": 37.6345633,
  "Longitude": 126.9275683,
  "BuildingName": "우리덕구동물병원"
 },
 {
  "번호": 271,
  "Name": "동물병원",
  "PhoneNumber": "02-2135-2225",
  "address": "서울특별시 마포구 공덕동 222-2 공덕 메디힐스 지하1층",
  "Latitude": 37.5489269,
  "Longitude": 126.9521662,
  "BuildingName": "날으는 동물병원"
 },
 {
  "번호": 272,
  "Name": "동물병원",
  "PhoneNumber": "02-562-7582",
  "address": "서울특별시 강남구 역삼동 727-8 1층",
  "Latitude": 37.4974247,
  "Longitude": 127.0389213,
  "BuildingName": "24시SNC동물메디컬센터"
 },
 {
  "번호": 273,
  "Name": "동물병원",
  "PhoneNumber": "02-419-7571",
  "address": "서울특별시 송파구 송파동 135-2",
  "Latitude": 37.509254,
  "Longitude": 127.111872,
  "BuildingName": "송파원동물병원"
 },
 {
  "번호": 274,
  "Name": "동물병원",
  "PhoneNumber": "02-426-2775",
  "address": "서울특별시 강동구 암사동 414-18번지",
  "Latitude": 37.5553105,
  "Longitude": 127.1403856,
  "BuildingName": "돌봄동물병원"
 },
 {
  "번호": 275,
  "Name": "동물병원",
  "PhoneNumber": "02-2213-8875",
  "address": "서울특별시 동대문구 답십리동 1003-2번지 세기프라자",
  "Latitude": 37.5723113,
  "Longitude": 127.0555634,
  "BuildingName": "더케이동물병원"
 },
 {
  "번호": 276,
  "Name": "동물병원",
  "PhoneNumber": "02-472-7579",
  "address": "서울특별시 강동구 성내동 244-2",
  "Latitude": 37.5343701,
  "Longitude": 127.1359844,
  "BuildingName": "강동24시 SKY 동물의료센터"
 },
 {
  "번호": 277,
  "Name": "동물병원",
  "PhoneNumber": "02-441-5515",
  "address": "서울특별시 강동구 고덕동 688번지 래미안힐스테이트고덕 상가 2층 212,213호",
  "Latitude": 37.558949,
  "Longitude": 127.1470826,
  "BuildingName": "고덕 고래힐동물병원"
 },
 {
  "번호": 278,
  "Name": "동물병원",
  "PhoneNumber": "906-7575",
  "address": "서울특별시 도봉구 창동 650-11번지",
  "Latitude": 37.6453593,
  "Longitude": 127.0337003,
  "BuildingName": "트윈스동물병원"
 },
 {
  "번호": 279,
  "Name": "동물병원",
  "PhoneNumber": "02-540-6303",
  "address": "서울특별시 강남구 신사동 660-7번지 1층,2층",
  "Latitude": 37.5282051,
  "Longitude": 127.0378221,
  "BuildingName": "압구정메이트동물병원"
 },
 {
  "번호": 280,
  "Name": "동물병원",
  "PhoneNumber": "02-336-0073",
  "address": "서울특별시 마포구 망원동 477-3",
  "Latitude": 37.560772,
  "Longitude": 126.9054366,
  "BuildingName": "이황 동물병원"
 },
 {
  "번호": 281,
  "Name": "동물병원",
  "PhoneNumber": 8464597,
  "address": "서울특별시 양천구 목동 507-2 덕수프라자",
  "Latitude": 37.5468723,
  "Longitude": 126.8713762,
  "BuildingName": "두암동물병원"
 },
 {
  "번호": 282,
  "Name": "동물병원",
  "PhoneNumber": "02-375-1963",
  "address": "서울특별시 마포구 성산동 200-24번지",
  "Latitude": 37.5670145,
  "Longitude": 126.9097946,
  "BuildingName": "와우 동물병원"
 },
 {
  "번호": 283,
  "Name": "동물병원",
  "PhoneNumber": "02-903-7582",
  "address": "서울특별시 강북구 수유동 39-10 1, 2층",
  "Latitude": 37.6414521,
  "Longitude": 127.0222657,
  "BuildingName": "24시 수유 바른펫 동물의료센터"
 },
 {
  "번호": 284,
  "Name": "동물병원",
  "PhoneNumber": "02-848-7975",
  "address": "서울특별시 영등포구 신길동 2039 상가동 C119호",
  "Latitude": 37.5060633,
  "Longitude": 126.9136167,
  "BuildingName": "신길 온동물병원"
 },
 {
  "번호": 285,
  "Name": "동물병원",
  "PhoneNumber": "02-305-7505",
  "address": "서울특별시 서대문구 남가좌동 385번지 DMC파크뷰자이",
  "Latitude": 37.5722576,
  "Longitude": 126.9178374,
  "BuildingName": "강앤정 동물병원"
 },
 {
  "번호": 286,
  "Name": "동물병원",
  "PhoneNumber": "02-6215-3416",
  "address": "서울특별시 중랑구 면목동 146-75",
  "Latitude": 37.5875118,
  "Longitude": 127.0802442,
  "BuildingName": "로얄동물암치료센터"
 },
 {
  "번호": 287,
  "Name": "동물병원",
  "PhoneNumber": "02-2601-8875",
  "address": "서울특별시 양천구 신정동 1182-11",
  "Latitude": 37.5177284,
  "Longitude": 126.8536262,
  "BuildingName": "24시 서울 탑 동물병원"
 },
 {
  "번호": 288,
  "Name": "동물병원",
  "PhoneNumber": "02-555-6835",
  "address": "서울특별시 강남구 대치동 903-12번지 한상빌딩",
  "Latitude": 37.502794,
  "Longitude": 127.0573247,
  "BuildingName": "원동물병원"
 },
 {
  "번호": 289,
  "Name": "동물병원",
  "PhoneNumber": "02-719-7052",
  "address": "서울특별시 마포구 아현동 331-2",
  "Latitude": 37.5570916,
  "Longitude": 126.9542989,
  "BuildingName": "소망동물병원"
 },
 {
  "번호": 290,
  "Name": "동물병원",
  "PhoneNumber": "02-808-2475",
  "address": "서울특별시 금천구 시흥동 999-1",
  "Latitude": 37.4561179,
  "Longitude": 126.8995349,
  "BuildingName": "금천 24시 K동물의료센터"
 },
 {
  "번호": 291,
  "Name": "동물병원",
  "PhoneNumber": "02-2024-1253",
  "BuildingName": "쿨펫동물병원"
 },
 {
  "번호": 292,
  "Name": "동물병원",
  "PhoneNumber": "02-855-8575",
  "address": "서울특별시 금천구 독산동 145-13",
  "Latitude": 37.4767457,
  "Longitude": 126.8982881,
  "BuildingName": "24시 글로리 동물병원"
 },
 {
  "번호": 293,
  "Name": "동물병원",
  "PhoneNumber": "02-965-0075",
  "address": "서울특별시 동대문구 이문동 292-10번지 이문동 웰츠타워",
  "Latitude": 37.598488,
  "Longitude": 127.0618949,
  "BuildingName": "바론동물병원"
 },
 {
  "번호": 294,
  "Name": "동물병원",
  "PhoneNumber": "02-521-5775",
  "address": "서울특별시 동작구 사당동 248-5번지",
  "Latitude": 37.4849286,
  "Longitude": 126.9698937,
  "BuildingName": "나을동물병원"
 },
 {
  "번호": 295,
  "Name": "동물병원",
  "PhoneNumber": "2642-1239",
  "address": "서울특별시 양천구 신정동 329 목동신시가지아파트14단지 B상가 117,호",
  "Latitude": 37.5161905,
  "Longitude": 126.8703376,
  "BuildingName": "페토브 동물병원"
 },
 {
  "번호": 296,
  "Name": "동물병원",
  "PhoneNumber": "02-356-9475",
  "address": "서울특별시 은평구 불광동 643 북한산 힐스테이트7차, 상가동 지하2층 128호, 지하1층 228호",
  "Latitude": 37.6165312,
  "Longitude": 126.9266862,
  "BuildingName": "담은동물병원"
 },
 {
  "번호": 297,
  "Name": "동물병원",
  "PhoneNumber": "02-749-7588",
  "address": "서울특별시 용산구 이촌동 300-23번지 한강맨션 11동 102호",
  "Latitude": 37.5182907,
  "Longitude": 126.9759433,
  "BuildingName": "베이동물병원"
 },
 {
  "번호": 298,
  "Name": "동물병원",
  "PhoneNumber": "2661-7515",
  "address": "서울특별시 강서구 마곡동 747 1014동 103호",
  "Latitude": 37.5595407,
  "Longitude": 126.8193505,
  "BuildingName": "마곡나무 동물병원"
 },
 {
  "번호": 299,
  "Name": "동물병원",
  "PhoneNumber": "02-375-7575",
  "address": "서울특별시 마포구 성산동 94-4 성미빌딩",
  "Latitude": 37.5659781,
  "Longitude": 126.9108372,
  "BuildingName": "라온동물병원"
 },
 {
  "번호": 300,
  "Name": "동물병원",
  "PhoneNumber": "02-2635-2475",
  "address": "서울특별시 영등포구 당산동5가 11-30 1,2층",
  "Latitude": 37.5320913,
  "Longitude": 126.9050405,
  "BuildingName": "이든동물의료센터"
 },
 {
  "번호": 301,
  "Name": "동물병원",
  "PhoneNumber": "02-783-7580",
  "address": "서울특별시 영등포구 여의도동 53-3번지 미라클빌딩 4층",
  "Latitude": 37.5187228,
  "Longitude": 126.9335595,
  "BuildingName": "여의도 동물병원"
 },
 {
  "번호": 302,
  "Name": "동물병원",
  "PhoneNumber": "02-335-7577",
  "address": "서울특별시 마포구 서교동 5-2번지",
  "Latitude": 37.5574003,
  "Longitude": 126.9092654,
  "BuildingName": "푸른숲 동물병원"
 },
 {
  "번호": 303,
  "Name": "동물병원",
  "PhoneNumber": "02-498-7588",
  "BuildingName": "파라곤동물병원"
 },
 {
  "번호": 304,
  "Name": "동물병원",
  "PhoneNumber": "02-2297-9300",
  "BuildingName": "바라봄동물병원"
 },
 {
  "번호": 305,
  "Name": "동물병원",
  "PhoneNumber": "02-2643-8204",
  "address": "서울특별시 양천구 신정동 1052-3",
  "Latitude": 37.5171874,
  "Longitude": 126.8546374,
  "BuildingName": "다온동물병원"
 },
 {
  "번호": 306,
  "Name": "동물병원",
  "PhoneNumber": "02-539-3339",
  "address": "서울특별시 강남구 대치동 316번지 1통2반 은마상가 1층 B120, B121 101동 801호",
  "Latitude": 37.4974176,
  "Longitude": 127.0653272,
  "BuildingName": "대치수동물병원"
 },
 {
  "번호": 307,
  "Name": "동물병원",
  "PhoneNumber": "02-549-0275",
  "address": "서울특별시 강남구 신사동 587-13 1층 지하1층",
  "Latitude": 37.5207257,
  "Longitude": 127.0299801,
  "BuildingName": "24시 스마트동물병원(신사본원)"
 },
 {
  "번호": 308,
  "Name": "동물병원",
  "PhoneNumber": "02-484-4063",
  "address": "서울특별시 강동구 성내동 322-7번지 1층",
  "Latitude": 37.5320962,
  "Longitude": 127.1214666,
  "BuildingName": "닥터표동물병원"
 },
 {
  "번호": 309,
  "Name": "동물병원",
  "PhoneNumber": "02-3152-0075",
  "address": "서울특별시 은평구 응암동 244-212번지",
  "Latitude": 37.5882137,
  "Longitude": 126.9224591,
  "BuildingName": "참좋은동물병원"
 },
 {
  "번호": 310,
  "Name": "동물병원",
  "PhoneNumber": "02-2282-7501",
  "address": "서울특별시 성동구 옥수동 528번지 이편한세상옥수파크힐스",
  "Latitude": 37.5438285,
  "Longitude": 127.013956,
  "BuildingName": "스테이동물병원"
 },
 {
  "번호": 311,
  "Name": "동물병원",
  "PhoneNumber": "02-529-7587",
  "address": "서울특별시 강남구 도곡동 467-7 아카데미스위트 에이동 104, 202호",
  "Latitude": 37.4889623,
  "Longitude": 127.0519645,
  "BuildingName": "그레이동물병원 강남점"
 },
 {
  "번호": 312,
  "Name": "동물병원",
  "PhoneNumber": "02-793-0075",
  "address": "서울특별시 용산구 이촌동 302-88 지상1층 101호",
  "Latitude": 37.5200071,
  "Longitude": 126.9699075,
  "BuildingName": "24시 시유동물메디컬센터"
 },
 {
  "번호": 313,
  "Name": "동물병원",
  "PhoneNumber": "912-6555",
  "address": "서울특별시 성북구 하월곡동 62-4번지",
  "Latitude": 37.6042178999999,
  "Longitude": 127.0377433,
  "BuildingName": "포유동물병원"
 },
 {
  "번호": 314,
  "Name": "동물병원",
  "PhoneNumber": "02-468-7975",
  "address": "서울특별시 성동구 성수동1가 22-28번지 1층",
  "Latitude": 37.5436309,
  "Longitude": 127.0491999,
  "BuildingName": "포레동물병원"
 },
 {
  "번호": 315,
  "Name": "동물병원",
  "PhoneNumber": "02-835-7975",
  "address": "서울특별시 영등포구 신길동 162-10번지",
  "Latitude": 37.5121524,
  "Longitude": 126.9159639,
  "BuildingName": "아람동물병원"
 },
 {
  "번호": 316,
  "Name": "동물병원",
  "PhoneNumber": "02-428-1661",
  "address": "서울특별시 강동구 암사동 503-23번지",
  "Latitude": 37.5514792,
  "Longitude": 127.1277197,
  "BuildingName": "올바른동물병원"
 },
 {
  "번호": 317,
  "Name": "동물병원",
  "PhoneNumber": "02-352-7275",
  "address": "서울특별시 은평구 대조동 14-27 2층",
  "Latitude": 37.6102059,
  "Longitude": 126.9292166,
  "BuildingName": "개와냥이동물병원"
 },
 {
  "번호": 318,
  "Name": "동물병원",
  "PhoneNumber": 222810049,
  "address": "서울특별시 성동구 금호동2가 1217번지 래미안하이리버 상가동 비201호",
  "Latitude": 37.551292,
  "Longitude": 127.0245415,
  "BuildingName": "금호동물병원"
 },
 {
  "번호": 319,
  "Name": "동물병원",
  "PhoneNumber": "02-792-2561",
  "address": "서울특별시 용산구 용산동5가 24번지 파크타워 지하1층 비21호",
  "Latitude": 37.5242741,
  "Longitude": 126.9706849,
  "BuildingName": "바다동물병원(Bada Animal Hospital)"
 },
 {
  "번호": 320,
  "Name": "동물병원",
  "PhoneNumber": "02-941-5575",
  "address": "서울특별시 성북구 길음동 1285번지 길음뉴타운7단지 두산위브상가 103호, 104호",
  "Latitude": 37.603245,
  "Longitude": 127.024959,
  "BuildingName": "스마트동물병원 성북길음점"
 },
 {
  "번호": 321,
  "Name": "동물병원",
  "PhoneNumber": "02-547-7588",
  "address": "서울특별시 강남구 신사동 617 성수빌딩",
  "Latitude": 37.5286515,
  "Longitude": 127.0325486,
  "BuildingName": "압구정동물의료센터"
 },
 {
  "번호": 322,
  "Name": "동물병원",
  "PhoneNumber": "02-588-7511",
  "address": "서울특별시 서초구 서초동 1624-1 영빌딩",
  "Latitude": 37.4881006,
  "Longitude": 127.0149404,
  "BuildingName": "서초M동물의료센터"
 },
 {
  "번호": 323,
  "Name": "동물병원",
  "PhoneNumber": "02-443-8898",
  "address": "서울특별시 송파구 거여동 290-3 우토 파크빌딩",
  "Latitude": 37.4899831,
  "Longitude": 127.1447566,
  "BuildingName": "마루동물병원"
 },
 {
  "번호": 324,
  "Name": "동물병원",
  "PhoneNumber": "02-459-5955",
  "address": "서울특별시 강남구 수서동 595번지 제이스프라자 109호",
  "Latitude": 37.4840818,
  "Longitude": 127.0938999,
  "BuildingName": "수서동물병원"
 },
 {
  "번호": 325,
  "Name": "동물병원",
  "PhoneNumber": "02-2061-5277",
  "address": "서울특별시 양천구 신정동 1028-4번지",
  "Latitude": 37.521324,
  "Longitude": 126.8564648,
  "BuildingName": "밀리언동물병원"
 },
 {
  "번호": 326,
  "Name": "동물병원",
  "PhoneNumber": "02-6203-7588",
  "address": "서울특별시 강남구 역삼동 689-2 PRODIGY TOWER",
  "Latitude": 37.5066962,
  "Longitude": 127.0408665,
  "BuildingName": "서울동물심장병원"
 },
 {
  "번호": 327,
  "Name": "동물병원",
  "PhoneNumber": "02-525-3102",
  "address": "서울특별시 서초구 방배동 442-3 대광빌딩 1,2층",
  "Latitude": 37.4796737,
  "Longitude": 126.9821564,
  "BuildingName": "VIP동물의료센터 서초동작점"
 },
 {
  "번호": 328,
  "Name": "동물병원",
  "PhoneNumber": 28071616,
  "address": "서울특별시 금천구 독산동 1102-5번지",
  "Latitude": 37.4537945999999,
  "Longitude": 126.8903777,
  "BuildingName": "조아동물병원"
 },
 {
  "번호": 329,
  "Name": "동물병원",
  "PhoneNumber": "02-442-8287",
  "address": "서울특별시 강동구 암사동 462-3번지",
  "Latitude": 37.5540637,
  "Longitude": 127.1292334,
  "BuildingName": "마리스동물의료센터"
 },
 {
  "번호": 330,
  "Name": "동물병원",
  "PhoneNumber": "02-448-7588",
  "address": "서울특별시 송파구 문정동 57-3",
  "Latitude": 37.4841578,
  "Longitude": 127.1239622,
  "BuildingName": "송파스마일동물병원"
 },
 {
  "번호": 331,
  "Name": "동물병원",
  "PhoneNumber": "02-400-8575",
  "address": "서울특별시 송파구 문정동 85 어은회관",
  "Latitude": 37.4830755,
  "Longitude": 127.1279017,
  "BuildingName": "송파바로동물병원"
 },
 {
  "번호": 332,
  "Name": "동물병원",
  "PhoneNumber": "02-3661-8200",
  "address": "서울특별시 강서구 가양동 1480-5번지",
  "Latitude": 37.5626213,
  "Longitude": 126.8530147,
  "BuildingName": "고려종합동물병원"
 },
 {
  "번호": 333,
  "Name": "동물병원",
  "PhoneNumber": "02-476-3927",
  "address": "서울특별시 강동구 성내동 449-13번지",
  "Latitude": 37.5224537,
  "Longitude": 127.1336511,
  "BuildingName": "방주동물의료센터"
 },
 {
  "번호": 334,
  "Name": "동물병원",
  "address": "서울특별시 금천구 독산동 1023-14번지",
  "Latitude": 37.4670182,
  "Longitude": 126.9015072,
  "BuildingName": "독산온동물병원"
 },
 {
  "번호": 335,
  "Name": "동물병원",
  "PhoneNumber": "02-3664-0075",
  "address": "서울특별시 강서구 내발산동 646",
  "Latitude": 37.5581499,
  "Longitude": 126.8391132,
  "BuildingName": "우리아이동물메디컬센터"
 },
 {
  "번호": 336,
  "Name": "동물병원",
  "address": "서울특별시 강남구 청담동 125-12 4층",
  "Latitude": 37.5251555,
  "Longitude": 127.0526252,
  "BuildingName": "청담눈초롱안과동물병원"
 },
 {
  "번호": 337,
  "Name": "동물병원",
  "PhoneNumber": "02-949-7582",
  "address": "서울특별시 노원구 공릉동 90-1번지 해중빌딩 105호",
  "Latitude": 37.622143,
  "Longitude": 127.0863716,
  "BuildingName": "키움 동물병원"
 },
 {
  "번호": 338,
  "Name": "동물병원",
  "PhoneNumber": "02-2242-0175",
  "address": "서울특별시 동대문구 장안동 483",
  "Latitude": 37.5755126,
  "Longitude": 127.0676783,
  "BuildingName": "스마트동물병원"
 },
 {
  "번호": 339,
  "Name": "동물병원",
  "PhoneNumber": "02-494-7775",
  "address": "서울특별시 중랑구 면목동 17-31번지",
  "Latitude": 37.5899503,
  "Longitude": 127.0974043,
  "BuildingName": "보담동물병원"
 },
 {
  "번호": 340,
  "Name": "동물병원",
  "PhoneNumber": "02-952-7582",
  "address": "서울특별시 노원구 상계동 397-5번지",
  "Latitude": 37.6584605,
  "Longitude": 127.0657592,
  "BuildingName": "스마트동물병원"
 },
 {
  "번호": 341,
  "Name": "동물병원",
  "PhoneNumber": "02-887-1575",
  "address": "서울특별시 관악구 신림동 10-631",
  "Latitude": 37.4842117,
  "Longitude": 126.9368197,
  "BuildingName": "이로동물의료센터"
 },
 {
  "번호": 342,
  "Name": "동물병원",
  "PhoneNumber": "02-521-8181",
  "address": "서울특별시 서초구 서초동 1538-9 유민빌딩 1층",
  "Latitude": 37.4881363,
  "Longitude": 127.0090995,
  "BuildingName": "에이원동물병원"
 },
 {
  "번호": 343,
  "Name": "동물병원",
  "PhoneNumber": "468-6612",
  "address": "서울특별시 광진구 자양동 550-1",
  "Latitude": 37.5358139,
  "Longitude": 127.0683342,
  "BuildingName": "로얄 도그앤캣 메디컬센터"
 },
 {
  "번호": 344,
  "Name": "동물병원",
  "PhoneNumber": "02-468-7582",
  "address": "서울특별시 성동구 성수동2가 339-23번지",
  "Latitude": 37.5390481,
  "Longitude": 127.0546897,
  "BuildingName": "제인동물병원"
 },
 {
  "번호": 345,
  "Name": "동물병원",
  "PhoneNumber": "02-354-7544",
  "address": "서울특별시 은평구 불광동 104-94번지",
  "Latitude": 37.6237556,
  "Longitude": 126.9276983,
  "BuildingName": "둘레길동물병원"
 },
 {
  "번호": 346,
  "Name": "동물병원",
  "PhoneNumber": "02-571-8275",
  "address": "서울특별시 영등포구 영등포동 423-44 1층",
  "Latitude": 37.5156848,
  "Longitude": 126.9054135,
  "BuildingName": "경인동물의료센터"
 },
 {
  "번호": 347,
  "Name": "동물병원",
  "PhoneNumber": 267347500,
  "address": "서울특별시 구로구 구로동 650-4 SK허브수 B동 205호",
  "Latitude": 37.4958767,
  "Longitude": 126.8729117,
  "BuildingName": "허브동물병원"
 },
 {
  "번호": 348,
  "Name": "동물병원",
  "PhoneNumber": "02-6402-0301",
  "address": "서울특별시 성동구 옥수동 561번지 래미안옥수리버젠 상가동 420호",
  "Latitude": 37.5438285,
  "Longitude": 127.013956,
  "BuildingName": "오석헌동물병원"
 },
 {
  "번호": 349,
  "Name": "동물병원",
  "PhoneNumber": "02-766-7577",
  "address": "서울특별시 성북구 성북동 155-15번지 1층",
  "Latitude": 37.5934575,
  "Longitude": 127.0017173,
  "BuildingName": "앙리동물병원"
 },
 {
  "번호": 350,
  "Name": "동물병원",
  "PhoneNumber": "722-8275",
  "address": "서울특별시 종로구 통인동 147-7 씨에스코즈빌",
  "Latitude": 37.5790422,
  "Longitude": 126.9711636,
  "BuildingName": "광화문동물병원"
 },
 {
  "번호": 351,
  "Name": "동물병원",
  "PhoneNumber": "02-2232-7975",
  "address": "서울특별시 중구 황학동 2523 황학 아크로타워",
  "Latitude": 37.565869,
  "Longitude": 127.0215764,
  "BuildingName": "바른동물병원"
 },
 {
  "번호": 352,
  "Name": "동물병원",
  "PhoneNumber": "02-387-8275",
  "address": "서울특별시 은평구 진관동 82번지 은평뉴타운우물골아파트 두산위브 202동 B01호",
  "Latitude": 37.634608,
  "Longitude": 126.9263421,
  "BuildingName": "서울햇빛동물병원"
 },
 {
  "번호": 353,
  "Name": "동물병원",
  "PhoneNumber": "02-393-3588",
  "address": "서울특별시 마포구 아현동 424-14 영지빌딩",
  "Latitude": 37.550953,
  "Longitude": 126.9565276,
  "BuildingName": "24시 산들산들 동물병원"
 },
 {
  "번호": 354,
  "Name": "동물병원",
  "PhoneNumber": "573-7582",
  "address": "서울특별시 강남구 개포동 1229-11번지 동성빌딩1층",
  "Latitude": 37.4764431,
  "Longitude": 127.0463188,
  "BuildingName": "개포별빛동물병원"
 },
 {
  "번호": 355,
  "Name": "동물병원",
  "PhoneNumber": "02-715-0075",
  "address": "서울특별시 마포구 용강동 494-68",
  "Latitude": 37.5430332,
  "Longitude": 126.9378804,
  "BuildingName": "닥터 호오 동물병원"
 },
 {
  "번호": 356,
  "Name": "동물병원",
  "PhoneNumber": "02-305-5975",
  "address": "서울특별시 서대문구 남가좌동 369-10",
  "Latitude": 37.5756218,
  "Longitude": 126.9194417,
  "BuildingName": "오즈동물병원"
 },
 {
  "번호": 357,
  "Name": "동물병원",
  "PhoneNumber": "02-2611-5223",
  "address": "서울특별시 구로구 궁동 170-11 2층",
  "Latitude": 37.4962789,
  "Longitude": 126.8300231,
  "BuildingName": "365 마음동물병원"
 },
 {
  "번호": 358,
  "Name": "동물병원",
  "PhoneNumber": "3494-0075",
  "address": "서울특별시 도봉구 방학동 653-17 3층",
  "Latitude": 37.6690944,
  "Longitude": 127.0432012,
  "BuildingName": "방학동물외과센터"
 },
 {
  "번호": 359,
  "Name": "동물병원",
  "PhoneNumber": "02-6401-1512",
  "address": "서울특별시 송파구 문정동 620 송파 푸르지오시티",
  "Latitude": 37.4807632,
  "Longitude": 127.1212484,
  "BuildingName": "키다리동물병원"
 },
 {
  "번호": 360,
  "Name": "동물병원",
  "PhoneNumber": "02-305-4242",
  "address": "서울특별시 서대문구 남가좌동 124-1번지",
  "Latitude": 37.5708806,
  "Longitude": 126.9195039,
  "BuildingName": "어울림동물병원"
 },
 {
  "번호": 361,
  "Name": "동물병원",
  "PhoneNumber": "02-548-5466",
  "address": "서울특별시 강남구 청담동 44-15번지",
  "Latitude": 37.5182096,
  "Longitude": 127.0451825,
  "BuildingName": "굿모닝동물병원"
 },
 {
  "번호": 362,
  "Name": "동물병원",
  "PhoneNumber": "2694-8275",
  "address": "서울특별시 양천구 신정동 1320-2번지 신정프라자 203호",
  "Latitude": 37.5128983,
  "Longitude": 126.8325511,
  "BuildingName": "구름동물병원"
 },
 {
  "번호": 363,
  "Name": "동물병원",
  "PhoneNumber": "2282-3653",
  "address": "서울특별시 성동구 금호동4가 1338번지 10통4반 현대ESA아파트 910호",
  "Latitude": 37.545465,
  "Longitude": 127.0243047,
  "BuildingName": "펫365동물병원"
 },
 {
  "번호": 364,
  "Name": "동물병원",
  "PhoneNumber": "2644-8878",
  "address": "서울특별시 양천구 목동 903 목동신시가지아파트3단지 상가동 105호, 204호",
  "Latitude": 37.5341289,
  "Longitude": 126.8730672,
  "BuildingName": "파리스동물병원"
 },
 {
  "번호": 365,
  "Name": "동물병원",
  "PhoneNumber": "02-993-8266",
  "address": "서울특별시 강북구 수유동 340-2번지",
  "Latitude": 37.6433947,
  "Longitude": 127.0156996,
  "BuildingName": "초이스동물병원"
 },
 {
  "번호": 366,
  "Name": "동물병원",
  "PhoneNumber": "02-733-5060",
  "address": "서울특별시 서대문구 냉천동 195번지",
  "Latitude": 37.5690925,
  "Longitude": 126.9631967,
  "BuildingName": "독립문동물병원"
 },
 {
  "번호": 367,
  "Name": "동물병원",
  "PhoneNumber": "02-6925-4347",
  "address": "서울특별시 성북구 하월곡동 76-16",
  "Latitude": 37.6088066,
  "Longitude": 127.0357821,
  "BuildingName": "넬 동물의료센터"
 },
 {
  "번호": 368,
  "Name": "동물병원",
  "PhoneNumber": 26610530,
  "address": "서울특별시 강서구 공항동 28-10",
  "Latitude": 37.5615627,
  "Longitude": 126.8116969,
  "BuildingName": "송정동물메디컬센터"
 },
 {
  "번호": 369,
  "Name": "동물병원",
  "PhoneNumber": "02-473-0577",
  "address": "서울특별시 송파구 풍납동 257-95",
  "Latitude": 37.5302223,
  "Longitude": 127.113653,
  "BuildingName": "청담동물병원"
 },
 {
  "번호": 370,
  "Name": "동물병원",
  "PhoneNumber": "02-442-8875",
  "BuildingName": "스마트동물병원 강동암사점"
 },
 {
  "번호": 371,
  "Name": "동물병원",
  "PhoneNumber": "557-1555",
  "address": "서울특별시 강남구 역삼동 694-11 연안이씨빌딩 1층",
  "Latitude": 37.5068696,
  "Longitude": 127.0467575,
  "BuildingName": "선릉동물병원"
 },
 {
  "번호": 372,
  "Name": "동물병원",
  "PhoneNumber": "02-6242-8275",
  "address": "서울특별시 동대문구 전농동 322-31번지",
  "Latitude": 37.5737404,
  "Longitude": 127.0523332,
  "BuildingName": "아띠동물의료센터"
 },
 {
  "번호": 373,
  "Name": "동물병원",
  "PhoneNumber": "02-449-0075",
  "address": "서울특별시 송파구 거여동 20-5 정림빌딩 1층",
  "Latitude": 37.4945858,
  "Longitude": 127.1419259,
  "BuildingName": "온마음 동물메디컬센터"
 },
 {
  "번호": 374,
  "Name": "동물병원",
  "PhoneNumber": "02-984-7588",
  "address": "서울특별시 강북구 미아동 1357-6번지 미아프라자 106호",
  "Latitude": 37.6179491,
  "Longitude": 127.0189395,
  "BuildingName": "H 동물병원"
 },
 {
  "번호": 375,
  "Name": "동물병원",
  "PhoneNumber": "2663-8520",
  "BuildingName": "공항축산"
 },
 {
  "번호": 376,
  "Name": "동물병원",
  "PhoneNumber": "02-6227-8275",
  "BuildingName": "고덕24시 동물병원"
 },
 {
  "번호": 377,
  "Name": "동물병원",
  "PhoneNumber": "02-2135-9119",
  "address": "서울특별시 서초구 반포동 19-1 르본시티 2층",
  "Latitude": 37.5049039,
  "Longitude": 127.0022467,
  "BuildingName": "헬릭스동물메디컬센터"
 },
 {
  "번호": 378,
  "Name": "동물병원",
  "PhoneNumber": "3443-0275",
  "address": "서울특별시 강남구 신사동 528-3번지 덕산빌딩 203호",
  "Latitude": 37.5228465,
  "Longitude": 127.02055,
  "BuildingName": "압구정웰동물병원"
 },
 {
  "번호": 379,
  "Name": "동물병원",
  "PhoneNumber": "02-335-3333",
  "address": "서울특별시 마포구 성산동 17-23",
  "Latitude": 37.5620373,
  "Longitude": 126.915763,
  "BuildingName": "우리동생 동물병원"
 },
 {
  "번호": 380,
  "Name": "동물병원",
  "PhoneNumber": "02-979-8575",
  "address": "서울특별시 노원구 공릉동 576-22",
  "Latitude": 37.6215929,
  "Longitude": 127.0739618,
  "BuildingName": "메인동물병원"
 },
 {
  "번호": 381,
  "Name": "동물병원",
  "PhoneNumber": "02-484-5502",
  "address": "서울특별시 강동구 성내동 550-2번지 예원빌딩",
  "Latitude": 37.5289587,
  "Longitude": 127.1241786,
  "BuildingName": "가람동물병원"
 },
 {
  "번호": 382,
  "Name": "동물병원",
  "PhoneNumber": "02-576-1239",
  "address": "서울특별시 강남구 도곡동 545-6번지 1층,2층",
  "Latitude": 37.4913335,
  "Longitude": 127.0384772,
  "BuildingName": "강남다온동물병원"
 },
 {
  "번호": 383,
  "Name": "동물병원",
  "PhoneNumber": "02-445-5022",
  "address": "서울특별시 강남구 자곡동 658-105 강남힐스테이트에코",
  "Latitude": 37.4746926,
  "Longitude": 127.1050039,
  "BuildingName": "힐스타동물병원"
 },
 {
  "번호": 384,
  "Name": "동물병원",
  "PhoneNumber": "02-868-3931",
  "address": "서울특별시 관악구 신림동 526-9 1,2층",
  "Latitude": 37.4825972,
  "Longitude": 126.9170346,
  "BuildingName": "세계로동물의료센터"
 },
 {
  "번호": 385,
  "Name": "동물병원",
  "PhoneNumber": "02-2603-0075",
  "address": "서울특별시 강서구 화곡동 29통3반 한화 유로메트로 102동 1501호",
  "Latitude": 37.6025292,
  "Longitude": 126.7230169,
  "BuildingName": "미소동물의료센터"
 },
 {
  "번호": 386,
  "Name": "동물병원",
  "PhoneNumber": "02-2662-8111",
  "address": "서울특별시 강서구 마곡동 747 마곡엠밸리10단지 101호",
  "Latitude": 37.5595407,
  "Longitude": 126.8193505,
  "BuildingName": "24시 강서 젠틀리동물의료센터"
 },
 {
  "번호": 387,
  "Name": "동물병원",
  "PhoneNumber": "02-703-0075",
  "address": "서울특별시 용산구 원효로1가 133-3 리첸시아 용산 B동 113,114호",
  "Latitude": 37.5382753,
  "Longitude": 126.9673632,
  "BuildingName": "좋아서하는 동물병원"
 },
 {
  "번호": 388,
  "Name": "동물병원",
  "PhoneNumber": "02-508-7583",
  "address": "서울특별시 강남구 역삼동 771 101호,102호",
  "Latitude": 37.4970897,
  "Longitude": 127.0422033,
  "BuildingName": "드림동물병원"
 },
 {
  "번호": 389,
  "Name": "동물병원",
  "PhoneNumber": "549-7579",
  "address": "서울특별시 강남구 신사동 549-1 1층",
  "Latitude": 37.5243611,
  "Longitude": 127.0234522,
  "BuildingName": "가로수동물병원"
 },
 {
  "번호": 390,
  "Name": "동물병원",
  "PhoneNumber": "545-0075",
  "address": "서울특별시 강남구 신사동 630-23 2,3층",
  "Latitude": 37.5223796999999,
  "Longitude": 127.0351738,
  "BuildingName": "치료멍멍동물병원"
 },
 {
  "번호": 391,
  "Name": "동물병원",
  "PhoneNumber": "554-8875",
  "address": "서울특별시 강남구 역삼동 761-18번지",
  "Latitude": 37.4959548,
  "Longitude": 127.0466573,
  "BuildingName": "도곡종합동물병원"
 },
 {
  "번호": 392,
  "Name": "동물병원",
  "PhoneNumber": "445-7579",
  "address": "서울특별시 강남구 세곡동 581 강남리더스프라자 202-1호",
  "Latitude": 37.4657816,
  "Longitude": 127.1011914,
  "BuildingName": "마더스동물병원"
 },
 {
  "번호": 393,
  "Name": "동물병원",
  "PhoneNumber": "02-388-0275",
  "address": "서울특별시 은평구 역촌동 51-22번지",
  "Latitude": 37.6057243,
  "Longitude": 126.9111478,
  "BuildingName": "도담동물병원"
 },
 {
  "번호": 394,
  "Name": "동물병원",
  "PhoneNumber": "02-511-2842",
  "address": "서울특별시 강남구 청담동 1-18번지 2층",
  "Latitude": 37.5222645,
  "Longitude": 127.0396681,
  "BuildingName": "이비치 동물치과병원"
 },
 {
  "번호": 395,
  "Name": "동물병원",
  "PhoneNumber": "6959-8448",
  "address": "서울특별시 양천구 신월동 130-5번지 1층",
  "Latitude": 37.5302917,
  "Longitude": 126.8324195,
  "BuildingName": "서서울호수동물병원"
 },
 {
  "번호": 396,
  "Name": "동물병원",
  "PhoneNumber": "02-518-7500",
  "address": "서울특별시 강서구 등촌동 658-4",
  "Latitude": 37.5569656,
  "Longitude": 126.8521759,
  "BuildingName": "강서YD동물의료센터"
 },
 {
  "번호": 397,
  "Name": "동물병원",
  "PhoneNumber": "02-420-7580",
  "address": "서울특별시 송파구 잠실동 222-6 그린빌딩 1층",
  "Latitude": 37.5068778,
  "Longitude": 127.0799937,
  "BuildingName": "꿈이크는 동물병원"
 },
 {
  "번호": 398,
  "Name": "동물병원",
  "PhoneNumber": "2038-8253",
  "address": "서울특별시 광진구 중곡동 119-7",
  "Latitude": 37.5545525,
  "Longitude": 127.0870761,
  "BuildingName": "서울동물병원"
 },
 {
  "번호": 399,
  "Name": "동물병원",
  "PhoneNumber": "02-433-3387",
  "address": "서울특별시 중랑구 신내동 405-5번지",
  "Latitude": 37.6078176,
  "Longitude": 127.0983476,
  "BuildingName": "행복이 있는 동물병원"
 },
 {
  "번호": 400,
  "Name": "동물병원",
  "PhoneNumber": "2651-1855",
  "address": "서울특별시 양천구 목동 531-13 101호",
  "Latitude": 37.5444748,
  "Longitude": 126.8708956,
  "BuildingName": "대현동물병원"
 },
 {
  "번호": 401,
  "Name": "동물병원",
  "PhoneNumber": "6348-1982",
  "address": "서울특별시 양천구 목동 799-1번지 1층",
  "Latitude": 37.532837,
  "Longitude": 126.8684894,
  "BuildingName": "팜랜드동물병원"
 },
 {
  "번호": 402,
  "Name": "동물병원",
  "PhoneNumber": "3421-9075",
  "address": "서울특별시 중랑구 신내동 645번지 홈플러스 2층",
  "Latitude": 37.6157942,
  "Longitude": 127.0937634,
  "BuildingName": "도그플러스 동물병원"
 },
 {
  "번호": 403,
  "Name": "동물병원",
  "PhoneNumber": "02-574-7582",
  "address": "서울특별시 서초구 우면동 737 6단지상가 104호",
  "Latitude": 37.4614494,
  "Longitude": 127.0264908,
  "BuildingName": "서초힐스동물병원"
 },
 {
  "번호": 404,
  "Name": "동물병원",
  "PhoneNumber": "02-812-8275",
  "address": "서울특별시 동작구 상도동 22-151",
  "Latitude": 37.5051865,
  "Longitude": 126.9461419,
  "BuildingName": "지엔동물병원"
 },
 {
  "번호": 405,
  "Name": "동물병원",
  "PhoneNumber": "02-356-8353",
  "address": "서울특별시 은평구 불광동 554-1번지 1층",
  "Latitude": 37.6123773,
  "Longitude": 126.932109,
  "BuildingName": "다루동물병원"
 },
 {
  "번호": 406,
  "Name": "동물병원",
  "PhoneNumber": "02-424-7552",
  "address": "서울특별시 송파구 삼전동 22-6 1층",
  "Latitude": 37.506889,
  "Longitude": 127.0931686,
  "BuildingName": "행복한 우리아이 동물병원"
 },
 {
  "번호": 407,
  "Name": "동물병원",
  "PhoneNumber": "6053-6052",
  "address": "서울특별시 강남구 일원동 719번지 푸른마을아파트 상가동 102호",
  "Latitude": 37.484007,
  "Longitude": 127.0808459,
  "BuildingName": "수정동물병원"
 },
 {
  "번호": 408,
  "Name": "동물병원",
  "PhoneNumber": "2619-5102",
  "address": "서울특별시 구로구 개봉동 492 개봉푸르지오",
  "Latitude": 37.5004098,
  "Longitude": 126.848132,
  "BuildingName": "24시 명동물메디컬센터"
 },
 {
  "번호": 409,
  "Name": "동물병원",
  "PhoneNumber": "984-0075",
  "address": "서울특별시 성북구 길음동 1163",
  "Latitude": 37.6058394999999,
  "Longitude": 127.0243773,
  "BuildingName": "강북 24시 N 동물의료센터"
 },
 {
  "번호": 410,
  "Name": "동물병원",
  "PhoneNumber": "02-711-3375",
  "address": "서울특별시 마포구 염리동 164-4",
  "Latitude": 37.5446993,
  "Longitude": 126.9460445,
  "BuildingName": "굿모닝 동물병원"
 },
 {
  "번호": 411,
  "Name": "동물병원",
  "PhoneNumber": "02-307-3355",
  "address": "서울특별시 마포구 상암동 1655",
  "Latitude": 37.577686,
  "Longitude": 126.8886889,
  "BuildingName": "아프지말게 동물병원"
 },
 {
  "번호": 412,
  "Name": "동물병원",
  "PhoneNumber": "02-2233-6675",
  "address": "서울특별시 중구 신당동 44-17",
  "Latitude": 37.5605257,
  "Longitude": 127.0191101,
  "BuildingName": "신당 좋아요 동물병원"
 },
 {
  "번호": 413,
  "Name": "동물병원",
  "PhoneNumber": "02-431-0275",
  "address": "서울특별시 송파구 문정동 4-2 성해아파트상가 1층",
  "Latitude": 37.4908612,
  "Longitude": 127.1266754,
  "BuildingName": "문정탑동물병원"
 },
 {
  "번호": 414,
  "Name": "동물병원",
  "PhoneNumber": "02-6242-7500",
  "address": "서울특별시 동대문구 휘경동 267-84",
  "Latitude": 37.5894922,
  "Longitude": 127.0609605,
  "BuildingName": "하나동물병원"
 },
 {
  "번호": 415,
  "Name": "동물병원",
  "PhoneNumber": "02-969-7579",
  "address": "서울특별시 동대문구 회기동 62-8번지",
  "Latitude": 37.5903434,
  "Longitude": 127.0540494,
  "BuildingName": "봄봄동물병원"
 },
 {
  "번호": 416,
  "Name": "동물병원",
  "PhoneNumber": "02-477-1775",
  "BuildingName": "내품에동물병원"
 },
 {
  "번호": 417,
  "Name": "동물병원",
  "PhoneNumber": "02-969-7582",
  "address": "서울특별시 은평구 응암동 194-23",
  "Latitude": 37.5982018,
  "Longitude": 126.92509,
  "BuildingName": "스머프동물병원"
 },
 {
  "번호": 418,
  "Name": "동물병원",
  "PhoneNumber": "02-2203-7975",
  "address": "서울특별시 송파구 석촌동 2-9 금보 1층",
  "Latitude": 37.5049771,
  "Longitude": 127.097397,
  "BuildingName": "잠실베스트동물메디컬센터"
 },
 {
  "번호": 419,
  "Name": "동물병원",
  "PhoneNumber": "942-4883",
  "address": "서울특별시 성북구 길음동 1284번지 길음뉴타운 제상가비동 제지2층 25호",
  "Latitude": 37.6075609,
  "Longitude": 127.0179449,
  "BuildingName": "카카오 N 동물병원"
 },
 {
  "번호": 420,
  "Name": "동물병원",
  "PhoneNumber": "02-306-1259",
  "address": "서울특별시 마포구 상암동 115-11",
  "Latitude": 37.5763333,
  "Longitude": 126.8931357,
  "BuildingName": "동물병원 닥터K"
 },
 {
  "번호": 421,
  "Name": "동물병원",
  "PhoneNumber": "02-470-0030",
  "address": "서울특별시 강동구 둔촌동 517-4",
  "Latitude": 37.5288337,
  "Longitude": 127.1371945,
  "BuildingName": "Dr.주 동물병원"
 },
 {
  "번호": 422,
  "Name": "동물병원",
  "PhoneNumber": "02-875-7582",
  "address": "서울특별시 관악구 봉천동 1638-24번지",
  "Latitude": 37.4740796,
  "Longitude": 126.9663768,
  "BuildingName": "비타민동물병원"
 },
 {
  "번호": 423,
  "Name": "동물병원",
  "PhoneNumber": "02-6925-7021",
  "address": "서울특별시 강남구 청담동 47 노블레스타워",
  "Latitude": 37.5196492,
  "Longitude": 127.0491925,
  "BuildingName": "아이윌24시동물병원"
 },
 {
  "번호": 424,
  "Name": "동물병원",
  "PhoneNumber": "943-7582",
  "address": "서울특별시 성북구 하월곡동 46-73 코업스타클래스 1층",
  "Latitude": 37.6018094,
  "Longitude": 127.0403791,
  "BuildingName": "도담도담동물병원"
 },
 {
  "번호": 425,
  "Name": "동물병원",
  "PhoneNumber": "02-6227-7582",
  "address": "서울특별시 송파구 방이동 135-1 세림빌딩 1층",
  "Latitude": 37.5108775,
  "Longitude": 127.1189018,
  "BuildingName": "라임동물병원"
 },
 {
  "번호": 426,
  "Name": "동물병원",
  "PhoneNumber": "02-2692-8275",
  "address": "서울특별시 강서구 화곡동 27통5반 동양아파트 108동 2406호",
  "Latitude": 37.5466805999999,
  "Longitude": 126.84742,
  "BuildingName": "한마음동물병원"
 },
 {
  "번호": 427,
  "Name": "동물병원",
  "PhoneNumber": "02-322-1275",
  "address": "서울특별시 마포구 동교동 200-29",
  "Latitude": 37.5577074,
  "Longitude": 126.9225061,
  "BuildingName": "워너비 동물병원"
 },
 {
  "번호": 428,
  "Name": "동물병원",
  "PhoneNumber": "02-905-9119",
  "address": "서울특별시 도봉구 쌍문동 716-31번지",
  "Latitude": 37.6585924,
  "Longitude": 127.0403051,
  "BuildingName": "별난동물병원"
 },
 {
  "번호": 429,
  "Name": "동물병원",
  "PhoneNumber": "02-2060-7512",
  "address": "서울특별시 구로구 천왕동 279-3 골드프라자 201호",
  "Latitude": 37.4860308,
  "Longitude": 126.8385504,
  "BuildingName": "안정택동물병원"
 },
 {
  "번호": 430,
  "Name": "동물병원",
  "PhoneNumber": "02-2297-0075",
  "address": "서울특별시 성동구 하왕십리동 892-4",
  "Latitude": 37.5645661,
  "Longitude": 127.0278787,
  "BuildingName": "왕십리조은동물병원"
 },
 {
  "번호": 431,
  "Name": "동물병원",
  "PhoneNumber": "02-595-8875",
  "address": "서울특별시 서초구 방배동 758-2번지",
  "Latitude": 37.496639,
  "Longitude": 126.987735,
  "BuildingName": "한나동물병원"
 },
 {
  "번호": 432,
  "Name": "동물병원",
  "PhoneNumber": "2679-9997",
  "address": "서울특별시 영등포구 영등포동8가 72 미소로",
  "Latitude": 37.5285937,
  "Longitude": 126.9042,
  "BuildingName": "미소로동물병원"
 },
 {
  "번호": 433,
  "Name": "동물병원",
  "PhoneNumber": "02-987-7588",
  "address": "서울특별시 강북구 미아동 839-223번지 1층",
  "Latitude": 37.6203036,
  "Longitude": 127.0153474,
  "BuildingName": "스마트 동물병원"
 },
 {
  "번호": 434,
  "Name": "동물병원",
  "PhoneNumber": "02-915-5485",
  "address": "서울특별시 성북구 장위동 319번지 꿈의숲코오롱하늘채아파트 105동 112호",
  "Latitude": 37.619671,
  "Longitude": 127.0461571,
  "BuildingName": "꿈의숲동물병원"
 },
 {
  "번호": 435,
  "Name": "동물병원",
  "PhoneNumber": "02-414-7975",
  "address": "서울특별시 송파구 석촌동 174-12 청호빌딩 1층 2호",
  "Latitude": 37.5058012,
  "Longitude": 127.1061734,
  "BuildingName": "석촌동물병원"
 },
 {
  "번호": 436,
  "Name": "동물병원",
  "PhoneNumber": "02-2291-8275",
  "address": "서울특별시 성동구 마장동 791-9번지",
  "Latitude": 37.5656912,
  "Longitude": 127.0427762,
  "BuildingName": "기린동물병원"
 },
 {
  "번호": 437,
  "Name": "동물병원",
  "PhoneNumber": "02-2297-7570",
  "address": "서울특별시 성동구 금호동4가 800번지 금호동대우아파트 상가동 206호",
  "Latitude": 37.5459724,
  "Longitude": 127.0196834,
  "BuildingName": "바른동물병원"
 },
 {
  "번호": 438,
  "Name": "동물병원",
  "PhoneNumber": "853-7582",
  "address": "서울특별시 금천구 독산동 950-3",
  "Latitude": 37.47973,
  "Longitude": 126.9047274,
  "BuildingName": "우리동물메디컬센터"
 },
 {
  "번호": 439,
  "Name": "동물병원",
  "PhoneNumber": "2208-0329",
  "address": "서울특별시 중랑구 상봉동 99-10",
  "Latitude": 37.5972286,
  "Longitude": 127.087473,
  "BuildingName": "닥터 아이펫 동물병원"
 },
 {
  "번호": 440,
  "Name": "동물병원",
  "PhoneNumber": "02-790-7508",
  "address": "서울특별시 용산구 용산동2가 45-1번지 106호",
  "Latitude": 37.5431004,
  "Longitude": 126.9878326,
  "BuildingName": "퍼스동물병원"
 },
 {
  "번호": 441,
  "Name": "동물병원",
  "PhoneNumber": "464-7588",
  "address": "서울특별시 광진구 중곡동 166-6번지",
  "Latitude": 37.5654318,
  "Longitude": 127.0837958,
  "BuildingName": "드림펫 동물병원"
 },
 {
  "번호": 442,
  "Name": "동물병원",
  "PhoneNumber": "02-597-8985",
  "address": "서울특별시 관악구 남현동 612-51 남현프라자",
  "Latitude": 37.4714783,
  "Longitude": 126.9824131,
  "BuildingName": "아이러브펫동물병원"
 },
 {
  "번호": 443,
  "Name": "동물병원",
  "PhoneNumber": "581-5500",
  "address": "서울특별시 서초구 방배동 894-2 선빌딩 101호",
  "Latitude": 37.4881003,
  "Longitude": 126.9960533,
  "BuildingName": "동물제중원금손이 동물병원"
 },
 {
  "번호": 444,
  "Name": "동물병원",
  "PhoneNumber": "2038-9980",
  "address": "서울특별시 도봉구 창동 75-4",
  "Latitude": 37.6520414,
  "Longitude": 127.0465313,
  "BuildingName": "하비동물병원"
 },
 {
  "번호": 445,
  "Name": "동물병원",
  "PhoneNumber": "522-0222",
  "address": "서울특별시 서초구 서초동 1534-2번지 명성빌딩",
  "Latitude": 37.4845275,
  "Longitude": 127.0108068,
  "BuildingName": "아델 동물병원"
 },
 {
  "번호": 446,
  "Name": "동물병원",
  "PhoneNumber": "574-7533",
  "address": "서울특별시 강남구 청담동 86 5층",
  "Latitude": 37.5238647,
  "Longitude": 127.0396187,
  "BuildingName": "이안동물의학센터(청담점)"
 },
 {
  "번호": 447,
  "Name": "동물병원",
  "PhoneNumber": "02-844-7775",
  "address": "서울특별시 영등포구 신길동 100-12번지 중양빌딩",
  "Latitude": 37.5134014,
  "Longitude": 126.9185602,
  "BuildingName": "한가람동물의료센터"
 },
 {
  "번호": 448,
  "Name": "동물병원",
  "PhoneNumber": "02-6925-5475",
  "address": "서울특별시 송파구 신천동 11 장미c상가 내제2층 203호, 내제2층 204동 3호",
  "Latitude": 37.5200302,
  "Longitude": 127.1026164,
  "BuildingName": "킴리동물병원"
 },
 {
  "번호": 449,
  "Name": "동물병원",
  "PhoneNumber": "02-3280-7975",
  "address": "서울특별시 동작구 대방동 401-21",
  "Latitude": 37.4997155,
  "Longitude": 126.9222525,
  "BuildingName": "보라매웰종합동물병원"
 },
 {
  "번호": 450,
  "Name": "동물병원",
  "PhoneNumber": "2643-7579",
  "address": "서울특별시 양천구 목동 603-2번지 대우마이빌 102호",
  "Latitude": 37.5494794,
  "Longitude": 126.8668975,
  "BuildingName": "오라고동물병원"
 },
 {
  "번호": 451,
  "Name": "동물병원",
  "PhoneNumber": "919-0075",
  "address": "서울특별시 노원구 상계동 318-2 (주)노원24시동물의료센터",
  "Latitude": 37.6531769,
  "Longitude": 127.0681256,
  "BuildingName": "노원N동물의료센터"
 },
 {
  "번호": 452,
  "Name": "동물병원",
  "PhoneNumber": "02-701-0705",
  "address": "서울특별시 마포구 공덕동 256-13 제일빌딩",
  "Latitude": 37.5446204,
  "Longitude": 126.9526393,
  "BuildingName": "공덕 건강한 동물병원"
 },
 {
  "번호": 453,
  "Name": "동물병원",
  "PhoneNumber": "456-0975",
  "address": "서울특별시 광진구 자양동 606-27번지",
  "Latitude": 37.5317932,
  "Longitude": 127.0793493,
  "BuildingName": "자양동물병원"
 },
 {
  "번호": 454,
  "Name": "동물병원",
  "PhoneNumber": "02-338-2475",
  "address": "서울특별시 마포구 서교동 494",
  "Latitude": 37.5507977,
  "Longitude": 126.9167221,
  "BuildingName": "아이엠 동물병원"
 },
 {
  "번호": 455,
  "Name": "동물병원",
  "PhoneNumber": "02-2249-7600",
  "address": "서울특별시 동대문구 장안동 140-8",
  "Latitude": 37.5728623,
  "Longitude": 127.0677034,
  "BuildingName": "페트로동물의료원"
 },
 {
  "번호": 456,
  "Name": "동물병원",
  "PhoneNumber": "02-888-0976",
  "address": "서울특별시 관악구 봉천동 1656-22",
  "Latitude": 37.4754853,
  "Longitude": 126.9668447,
  "BuildingName": "나눔 양한방 동물병원"
 },
 {
  "번호": 457,
  "Name": "동물병원",
  "PhoneNumber": "02-2215-7522",
  "address": "서울특별시 동대문구 장안동 376-3",
  "Latitude": 37.5664068,
  "Longitude": 127.0675685,
  "BuildingName": "VIP동물의료센터"
 },
 {
  "번호": 458,
  "Name": "동물병원",
  "PhoneNumber": "02-712-8875",
  "address": "서울특별시 마포구 도화동 153",
  "Latitude": 37.5378253,
  "Longitude": 126.9472464,
  "BuildingName": "도화동물병원"
 },
 {
  "번호": 459,
  "Name": "동물병원",
  "PhoneNumber": "02-418-0724",
  "address": "서울특별시 송파구 잠실동 175-6 J타워 202호",
  "Latitude": 37.5115663,
  "Longitude": 127.0790214,
  "BuildingName": "24시잠실ON동물의료센터"
 },
 {
  "번호": 460,
  "Name": "동물병원",
  "PhoneNumber": "02-541-7515",
  "address": "서울특별시 강남구 삼성동 70-6",
  "Latitude": 37.5144888,
  "Longitude": 127.0528557,
  "BuildingName": "24시 청담우리 동물병원"
 },
 {
  "번호": 461,
  "Name": "동물병원",
  "PhoneNumber": "02-6497-7582",
  "address": "서울특별시 강동구 명일동 345-20 연우빌딩",
  "Latitude": 37.547239,
  "Longitude": 127.1436574,
  "BuildingName": "미드미동물의료센터"
 },
 {
  "번호": 462,
  "Name": "동물병원",
  "PhoneNumber": "450-0472",
  "address": "서울특별시 광진구 화양동 1",
  "Latitude": 37.5425408,
  "Longitude": 127.0737253,
  "BuildingName": "건국대학교 부속 동물병원"
 },
 {
  "번호": 463,
  "Name": "동물병원",
  "PhoneNumber": "915-5301",
  "address": "서울특별시 성북구 하월곡동 88-677번지",
  "Latitude": 37.6067841,
  "Longitude": 127.0285316,
  "BuildingName": "호담동물병원"
 },
 {
  "번호": 464,
  "Name": "동물병원",
  "PhoneNumber": "2058-1882",
  "address": "서울특별시 서초구 양재동 4-14",
  "Latitude": 37.4809179,
  "Longitude": 127.0416681,
  "BuildingName": "에이블 동물병원"
 },
 {
  "번호": 465,
  "Name": "동물병원",
  "PhoneNumber": "02-2604-3584",
  "address": "서울특별시 강서구 화곡동 134번지 8통3반 공원아파트 507호",
  "Latitude": 37.5406979,
  "Longitude": 126.8472722,
  "BuildingName": "세명 동물병원"
 },
 {
  "번호": 466,
  "Name": "동물병원",
  "PhoneNumber": "02-2281-8122",
  "address": "서울특별시 성동구 홍익동 398-2번지",
  "Latitude": 37.5655385,
  "Longitude": 127.0303174,
  "BuildingName": "라임동물병원"
 },
 {
  "번호": 467,
  "Name": "동물병원",
  "PhoneNumber": "02-2242-7975",
  "address": "서울특별시 동대문구 전농동 652-1번지",
  "Latitude": 37.5751262,
  "Longitude": 127.0496219,
  "BuildingName": "제연동물병원"
 },
 {
  "번호": 468,
  "Name": "동물병원",
  "PhoneNumber": "02-713-8275",
  "address": "서울특별시 마포구 공덕동 385-65 공덕SK리더스뷰",
  "Latitude": 37.5452869,
  "Longitude": 126.9498618,
  "BuildingName": "힐링 24시 동물병원"
 },
 {
  "번호": 469,
  "Name": "동물병원",
  "PhoneNumber": "02-6402-0365",
  "address": "서울특별시 도봉구 방학동 713-35",
  "Latitude": 37.6629674,
  "Longitude": 127.0463638,
  "BuildingName": "365동물병원"
 },
 {
  "번호": 470,
  "Name": "동물병원",
  "PhoneNumber": "02-812-7512",
  "address": "서울특별시 동작구 상도동 486-7",
  "Latitude": 37.4972873,
  "Longitude": 126.9531977,
  "BuildingName": "상도힐링동물병원"
 },
 {
  "번호": 471,
  "Name": "동물병원",
  "PhoneNumber": "02-475-7501",
  "address": "서울특별시 강동구 성내동 446-20 경도빌딩",
  "Latitude": 37.5252181,
  "Longitude": 127.1296371,
  "BuildingName": "석동물병원"
 },
 {
  "번호": 472,
  "Name": "동물병원",
  "PhoneNumber": "592-0202",
  "address": "서울특별시 서초구 반포동 1341",
  "Latitude": 37.5015999,
  "Longitude": 127.0132355,
  "BuildingName": "꿈꾸는 동물병원"
 },
 {
  "번호": 473,
  "Name": "동물병원",
  "PhoneNumber": "577-6125",
  "address": "서울특별시 서초구 양재동 215번지 이마트 양재점 지하1층",
  "Latitude": 37.4630303,
  "Longitude": 127.0364215,
  "BuildingName": "이리온 양재점"
 },
 {
  "번호": 474,
  "Name": "동물병원",
  "PhoneNumber": "02-387-7582",
  "address": "서울특별시 은평구 응암동 91-5",
  "Latitude": 37.5997808,
  "Longitude": 126.9181271,
  "BuildingName": "24시스마트동물메디컬센터"
 },
 {
  "번호": 475,
  "Name": "동물병원",
  "PhoneNumber": "02-983-7000",
  "address": "서울특별시 강북구 미아동 777-3",
  "Latitude": 37.6258596,
  "Longitude": 127.018478,
  "BuildingName": "봉식동물병원"
 },
 {
  "번호": 476,
  "Name": "동물병원",
  "PhoneNumber": "977-0275",
  "address": "서울특별시 노원구 공릉동 362-3번지",
  "Latitude": 37.6285034,
  "Longitude": 127.0718767,
  "BuildingName": "엔젤동물병원"
 },
 {
  "번호": 477,
  "Name": "동물병원",
  "PhoneNumber": "2633-9991",
  "address": "서울특별시 영등포구 당산동1가 40-18번지",
  "Latitude": 37.5215503,
  "Longitude": 126.8962539,
  "BuildingName": "영등포동물병원"
 },
 {
  "번호": 478,
  "Name": "동물병원",
  "address": "서울특별시 강서구 등촌동 628-13번지 101-1호",
  "Latitude": 37.5600872,
  "Longitude": 126.8563619,
  "BuildingName": "24시 안박동물병원"
 },
 {
  "번호": 479,
  "Name": "동물병원",
  "PhoneNumber": "556-7588",
  "address": "서울특별시 강남구 대치동 649 1층",
  "Latitude": 37.4927102,
  "Longitude": 127.0577477,
  "BuildingName": "래이동물의료센터"
 },
 {
  "번호": 480,
  "Name": "동물병원",
  "address": "서울특별시 성동구 행당동 344번지 111호",
  "Latitude": 37.5543707,
  "Longitude": 127.0328371,
  "BuildingName": "도담동물병원(출장진료전문 동물병원)"
 },
 {
  "번호": 481,
  "Name": "동물병원",
  "PhoneNumber": "859-8775",
  "address": "서울특별시 구로구 구로동 501-12번지 진명빌딩",
  "Latitude": 37.5005785,
  "Longitude": 126.8846068,
  "BuildingName": "벨라동물병원"
 },
 {
  "번호": 482,
  "Name": "동물병원",
  "PhoneNumber": "02-2069-0082",
  "address": "서울특별시 영등포구 문래동3가 55-3번지 4층",
  "Latitude": 37.5182266,
  "Longitude": 126.8959242,
  "BuildingName": "도그플러스동물병원"
 },
 {
  "번호": 483,
  "Name": "동물병원",
  "PhoneNumber": "02-338-0275",
  "address": "서울특별시 마포구 합정동 473 마포 한강 2차 푸르지오",
  "Latitude": 37.5483014,
  "Longitude": 126.9111751,
  "BuildingName": "캣&덴탈 하이디 동물병원"
 },
 {
  "번호": 484,
  "Name": "동물병원",
  "PhoneNumber": "511-6364",
  "address": "서울특별시 강남구 역삼동 725-15 2층",
  "Latitude": 37.5001255,
  "Longitude": 127.0393055,
  "BuildingName": "백산동물병원"
 },
 {
  "번호": 485,
  "Name": "동물병원",
  "PhoneNumber": "02-2291-7582",
  "address": "서울특별시 성동구 옥수동 560 어울림상가 301~4호",
  "Latitude": 37.5417014999999,
  "Longitude": 127.0180355,
  "BuildingName": "옥수수 동물병원"
 },
 {
  "번호": 486,
  "Name": "동물병원",
  "PhoneNumber": "3446-8253",
  "address": "서울특별시 강남구 논현동 123-5",
  "Latitude": 37.5112831,
  "Longitude": 127.023878,
  "BuildingName": "와이즈24시 동물병원"
 },
 {
  "번호": 487,
  "Name": "동물병원",
  "PhoneNumber": "951-7707",
  "address": "서울특별시 노원구 중계동 361번지",
  "Latitude": 37.646548,
  "Longitude": 127.0710901,
  "BuildingName": "펫가든"
 },
 {
  "번호": 488,
  "Name": "동물병원",
  "PhoneNumber": "02-419-1010",
  "address": "서울특별시 송파구 잠실동 22-6 리센츠상가 1층 C13,C14호",
  "Latitude": 37.5119601,
  "Longitude": 127.0869604,
  "BuildingName": "리센츠 스타 동물병원"
 },
 {
  "번호": 489,
  "Name": "동물병원",
  "PhoneNumber": "512-0075",
  "address": "서울특별시 강남구 역삼동 834-66",
  "Latitude": 37.4931656,
  "Longitude": 127.0354302,
  "BuildingName": "츄츄 동물병원"
 },
 {
  "번호": 490,
  "Name": "동물병원",
  "PhoneNumber": "512-2575",
  "address": "서울특별시 강남구 삼성동 119-3번지",
  "Latitude": 37.5125477,
  "Longitude": 127.0531599,
  "BuildingName": "마이펫동물의료센터"
 },
 {
  "번호": 491,
  "Name": "동물병원",
  "PhoneNumber": "568-7975",
  "address": "서울특별시 강남구 역삼동 732-26번지",
  "Latitude": 37.4975803,
  "Longitude": 127.0421412,
  "BuildingName": "위너스 동물병원"
 },
 {
  "번호": 492,
  "Name": "동물병원",
  "address": "서울특별시 금천구 독산동 102-12번지 9통9반",
  "Latitude": 37.4747701,
  "Longitude": 126.9068876,
  "BuildingName": "쿨펫동물병원"
 },
 {
  "번호": 493,
  "Name": "동물병원",
  "PhoneNumber": "385-8275",
  "address": "서울특별시 은평구 진관동 20번지 상림마을 821동 101호",
  "Latitude": 37.6422212,
  "Longitude": 126.9226464,
  "BuildingName": "뉴타운동물병원"
 },
 {
  "번호": 494,
  "Name": "동물병원",
  "PhoneNumber": "02-822-0275",
  "address": "서울특별시 동작구 흑석동 6-5번지",
  "Latitude": 37.5080505,
  "Longitude": 126.9640095,
  "BuildingName": "흑석24시동물병원"
 },
 {
  "번호": 495,
  "Name": "동물병원",
  "PhoneNumber": "797-6677",
  "address": "서울특별시 용산구 이태원동 531",
  "Latitude": 37.5364077,
  "Longitude": 126.9872392,
  "BuildingName": "이태원동물병원"
 },
 {
  "번호": 496,
  "Name": "동물병원",
  "PhoneNumber": "499-7582",
  "address": "서울특별시 광진구 중곡동 193-29",
  "Latitude": 37.565952,
  "Longitude": 127.0814789,
  "BuildingName": "다온동물병원"
 },
 {
  "번호": 497,
  "Name": "동물병원",
  "PhoneNumber": "939-7579",
  "address": "서울특별시 노원구 중계동 360-9 두타빌 A동 111,112호",
  "Latitude": 37.649542,
  "Longitude": 127.0763583,
  "BuildingName": "중계이오동물병원"
 },
 {
  "번호": 498,
  "Name": "동물병원",
  "PhoneNumber": "457-7582",
  "address": "서울특별시 광진구 광장동 582",
  "Latitude": 37.5431792,
  "Longitude": 127.0995622,
  "BuildingName": "나루동물병원"
 },
 {
  "번호": 499,
  "Name": "동물병원",
  "PhoneNumber": "2648-8275",
  "address": "서울특별시 양천구 목동 907-10번지",
  "Latitude": 37.5366731,
  "Longitude": 126.8798489,
  "BuildingName": "목동 동물병원"
 },
 {
  "번호": 500,
  "Name": "동물병원",
  "PhoneNumber": "302-3275",
  "address": "서울특별시 서대문구 북가좌동 306-21번지",
  "Latitude": 37.5788367,
  "Longitude": 126.9108074,
  "BuildingName": "두리틀동물병원"
 },
 {
  "번호": 501,
  "Name": "동물병원",
  "PhoneNumber": "2644-0069",
  "address": "서울특별시 양천구 신정동 995-4번지",
  "Latitude": 37.5246617,
  "Longitude": 126.8643993,
  "BuildingName": "상아동물병원"
 },
 {
  "번호": 502,
  "Name": "동물병원",
  "PhoneNumber": "02-419-7580",
  "address": "서울특별시 송파구 석촌동 217 달성빌딩",
  "Latitude": 37.5002117,
  "Longitude": 127.0969598,
  "BuildingName": "이룸동물병원"
 },
 {
  "번호": 503,
  "Name": "동물병원",
  "PhoneNumber": "02-574-0511",
  "address": "서울특별시 서초구 신원동 412-5번지 힐스테이트서초잰트리스 103호",
  "Latitude": 37.4441742,
  "Longitude": 127.062145,
  "BuildingName": "하나동물병원"
 },
 {
  "번호": 504,
  "Name": "동물병원",
  "PhoneNumber": "707-2235",
  "address": "서울특별시 용산구 산천동 202번지 삼성테마트 119호",
  "Latitude": 37.5339827,
  "Longitude": 126.9503898,
  "BuildingName": "민트동물병원"
 },
 {
  "번호": 505,
  "Name": "동물병원",
  "PhoneNumber": "02-834-7582",
  "address": "서울특별시 영등포구 대림동 776-2번지",
  "Latitude": 37.4984233,
  "Longitude": 126.8955204,
  "BuildingName": "왈츠동물병원"
 },
 {
  "번호": 506,
  "Name": "동물병원",
  "PhoneNumber": "02-823-7500",
  "address": "서울특별시 동작구 상도동 34-18번지 1층 및 2층",
  "Latitude": 37.5038557,
  "Longitude": 126.9468962,
  "BuildingName": "우리아이동물병원"
 },
 {
  "번호": 507,
  "Name": "동물병원",
  "PhoneNumber": "02-359-2020",
  "address": "서울특별시 은평구 대조동 187-24",
  "Latitude": 37.6165464,
  "Longitude": 126.9231743,
  "BuildingName": "Dr.윤24시동물병원"
 },
 {
  "번호": 508,
  "Name": "동물병원",
  "PhoneNumber": "02-466-2475",
  "address": "서울특별시 성동구 성수동2가 333-3번지 1층",
  "Latitude": 37.5390973,
  "Longitude": 127.0532291,
  "BuildingName": "서울숲동물병원"
 },
 {
  "번호": 509,
  "Name": "동물병원",
  "PhoneNumber": "02-880-8661",
  "address": "서울특별시 관악구 신림동 149",
  "Latitude": 37.4681975,
  "Longitude": 126.9517638,
  "BuildingName": "서울대학교 수의과대학 동물병원"
 },
 {
  "번호": 510,
  "Name": "동물병원",
  "PhoneNumber": "02-813-4567",
  "address": "서울특별시 동작구 흑석동 335-1번지",
  "Latitude": 37.506598,
  "Longitude": 126.9664777,
  "BuildingName": "나무동물병원"
 },
 {
  "번호": 511,
  "Name": "동물병원",
  "PhoneNumber": "790-9808",
  "address": "서울특별시 용산구 보광동 80-11번지",
  "Latitude": 37.5265218,
  "Longitude": 127.0007584,
  "BuildingName": "보광동물병원"
 },
 {
  "번호": 512,
  "Name": "동물병원",
  "PhoneNumber": "02-326-0275",
  "address": "서울특별시 마포구 망원동 338-76",
  "Latitude": 37.5528969,
  "Longitude": 126.9065453,
  "BuildingName": "박효리군 동물병원"
 },
 {
  "번호": 513,
  "Name": "동물병원",
  "PhoneNumber": "794-1255",
  "address": "서울특별시 용산구 한남동 707-36번지 한남프라자 2층",
  "Latitude": 37.5355646999999,
  "Longitude": 127.0065155,
  "BuildingName": "달래동물의료센터"
 },
 {
  "번호": 514,
  "Name": "동물병원",
  "PhoneNumber": "02-3476-3535",
  "address": "서울특별시 서초구 반포동 20-51 베리스타운102\/108호",
  "Latitude": 37.5066782,
  "Longitude": 127.013939,
  "BuildingName": "반포자이동물병원"
 },
 {
  "번호": 515,
  "Name": "동물병원",
  "PhoneNumber": "02-593-8275",
  "address": "서울특별시 동작구 사당동 148-9 1층 및 2층",
  "Latitude": 37.4848189,
  "Longitude": 126.9796285,
  "BuildingName": "굿파파 24시 반려동물건강검진센터"
 },
 {
  "번호": 516,
  "Name": "동물병원",
  "PhoneNumber": "02-3295-3927",
  "address": "서울특별시 동대문구 용두동 38-17번지",
  "Latitude": 37.5746701,
  "Longitude": 127.0376297,
  "BuildingName": "엘동물병원"
 },
 {
  "번호": 517,
  "Name": "동물병원",
  "PhoneNumber": "554-7582",
  "address": "서울특별시 강남구 개포동 189 개포자이 스퀘어상가 208호",
  "Latitude": 37.4855599,
  "Longitude": 127.0713384,
  "BuildingName": "스마트동물병원"
 },
 {
  "번호": 518,
  "Name": "동물병원",
  "PhoneNumber": "976-7582",
  "address": "서울특별시 노원구 공릉동 494-17번지 영운빌딩 1층",
  "Latitude": 37.623801,
  "Longitude": 127.073232,
  "BuildingName": "스마일플러스동물병원"
 },
 {
  "번호": 519,
  "Name": "동물병원",
  "PhoneNumber": "02-305-8275",
  "address": "서울특별시 서대문구 북가좌동 304-29",
  "Latitude": 37.5771814,
  "Longitude": 126.9108988,
  "BuildingName": "가재울봉쥬르동물병원"
 },
 {
  "번호": 520,
  "Name": "동물병원",
  "PhoneNumber": "02-2043-7582",
  "address": "서울특별시 송파구 오금동 17 왕천빌딩 1층",
  "Latitude": 37.5096991,
  "Longitude": 127.1273205,
  "BuildingName": "유앤동물의료원"
 },
 {
  "번호": 521,
  "Name": "동물병원",
  "PhoneNumber": "534-3475",
  "address": "서울특별시 서초구 반포동 20-45 반포자이프라자 133호",
  "Latitude": 37.5071264,
  "Longitude": 127.0098413,
  "BuildingName": "24시예스동물병원"
 },
 {
  "번호": 522,
  "Name": "동물병원",
  "PhoneNumber": "303-1114",
  "address": "서울특별시 서대문구 남가좌동 338-39번지",
  "Latitude": 37.5766521,
  "Longitude": 126.9248462,
  "BuildingName": "한스동물병원"
 },
 {
  "번호": 523,
  "Name": "동물병원",
  "PhoneNumber": "706-7975",
  "address": "서울특별시 용산구 산천동 93-1번지",
  "Latitude": 37.5342796,
  "Longitude": 126.9511238,
  "BuildingName": "차오름동물병원"
 },
 {
  "번호": 524,
  "Name": "동물병원",
  "PhoneNumber": "512-3331",
  "address": "서울특별시 강남구 삼성동 90-8 스타빌딩",
  "Latitude": 37.5155253,
  "Longitude": 127.0493901,
  "BuildingName": "중앙동물메디컬센터"
 },